{"id":23697,"name":"Microbes (Côte d'Ivoire)","type":"Sujets","stats":{"articleCount":10,"countries":["Burkina Faso","Côte d'Ivoire","France","Saudi Arabia"],"dateRange":{"first":"2014-07-20","last":"2017-09-06"}},"locations":[{"name":"Côte d'Ivoire","lat":8.0,"lng":-5.5,"country":"Côte d'Ivoire","articleCount":6,"articles":[{"id":"46351","title":"Affi N'Guessan depuis Abengourou : \"Ce régime a empoisonné la Côte d'Ivoire\"","date":"2015-08-30","newspaper":"Notre Voie","country":"Côte d'Ivoire","type":"articles"},{"id":"46678","title":"Célébration de la Nuit du destin : Boikary Fofana dénonce le phénomène des «microbes»","date":"2014-07-25","newspaper":"Notre Voie","country":"Côte d'Ivoire","type":"articles"},{"id":"48271","title":"Yamoussoukro : l'Imam Sylla accuse les parents des \"microbes\"","date":"2017-06-28","newspaper":"Notre Voie","country":"Côte d'Ivoire","type":"articles"},{"id":"48338","title":"Yamoussoukro : l’imam central condamne le phénomène des \"microbes\"","date":"2017-09-06","newspaper":"Notre Voie","country":"Côte d'Ivoire","type":"articles"},{"id":"48981","title":"Célébration de l'Aïd el Fitr","date":"2017-06-27","newspaper":"Le Patriote","country":"Côte d'Ivoire","type":"articles"},{"id":"49032","title":"Interview. L'imam Mahmoud Sanogo : \"On ne doit pas se cotiser pour acheter un bœuf pour le sacrifice\"","date":"2017-08-31","newspaper":"Le Patriote","country":"Côte d'Ivoire","type":"articles"}]},{"name":"Yamoussoukro","lat":6.816111,"lng":-5.274167,"country":"Côte d'Ivoire","articleCount":3,"articles":[{"id":"48271","title":"Yamoussoukro : l'Imam Sylla accuse les parents des \"microbes\"","date":"2017-06-28","newspaper":"Notre Voie","country":"Côte d'Ivoire","type":"articles"},{"id":"48338","title":"Yamoussoukro : l’imam central condamne le phénomène des \"microbes\"","date":"2017-09-06","newspaper":"Notre Voie","country":"Côte d'Ivoire","type":"articles"},{"id":"48981","title":"Célébration de l'Aïd el Fitr","date":"2017-06-27","newspaper":"Le Patriote","country":"Côte d'Ivoire","type":"articles"}]},{"name":"Mosquée de la Riviéra Golf","lat":5.33757653748572,"lng":-3.9788409923568815,"country":"Côte d'Ivoire","articleCount":2,"articles":[{"id":"46678","title":"Célébration de la Nuit du destin : Boikary Fofana dénonce le phénomène des «microbes»","date":"2014-07-25","newspaper":"Notre Voie","country":"Côte d'Ivoire","type":"articles"},{"id":"48981","title":"Célébration de l'Aïd el Fitr","date":"2017-06-27","newspaper":"Le Patriote","country":"Côte d'Ivoire","type":"articles"}]},{"name":"Mosquée de la Paix","lat":0,"lng":0,"country":"Unknown","articleCount":2,"articles":[{"id":"48271","title":"Yamoussoukro : l'Imam Sylla accuse les parents des \"microbes\"","date":"2017-06-28","newspaper":"Notre Voie","country":"Côte d'Ivoire","type":"articles"},{"id":"48338","title":"Yamoussoukro : l’imam central condamne le phénomène des \"microbes\"","date":"2017-09-06","newspaper":"Notre Voie","country":"Côte d'Ivoire","type":"articles"}]},{"name":"Abidjan","lat":5.35444,"lng":-4.00167,"country":"Côte d'Ivoire","articleCount":2,"articles":[{"id":"48271","title":"Yamoussoukro : l'Imam Sylla accuse les parents des \"microbes\"","date":"2017-06-28","newspaper":"Notre Voie","country":"Côte d'Ivoire","type":"articles"},{"id":"48338","title":"Yamoussoukro : l’imam central condamne le phénomène des \"microbes\"","date":"2017-09-06","newspaper":"Notre Voie","country":"Côte d'Ivoire","type":"articles"}]},{"name":"Abobo","lat":5.418889,"lng":-4.020556,"country":"Côte d'Ivoire","articleCount":2,"articles":[{"id":"48866","title":"Ouattara Brahima, coordonnateur national du FOLU : \"Abobo est devalue une zone rouge par la faute de nos enfants”","date":"2017-01-19","newspaper":"Le Patriote","country":"Côte d'Ivoire","type":"articles"},{"id":"48949","title":"La nuit du Destin : les Amis du paradis vont prier contre la violence à Abobo","date":"2017-06-21","newspaper":"Le Patriote","country":"Côte d'Ivoire","type":"articles"}]},{"name":"France","lat":46.0,"lng":2.0,"country":"France","articleCount":1,"articles":[{"id":"46351","title":"Affi N'Guessan depuis Abengourou : \"Ce régime a empoisonné la Côte d'Ivoire\"","date":"2015-08-30","newspaper":"Notre Voie","country":"Côte d'Ivoire","type":"articles"}]},{"name":"Abengourou","lat":6.729722,"lng":-3.496389,"country":"Côte d'Ivoire","articleCount":1,"articles":[{"id":"46351","title":"Affi N'Guessan depuis Abengourou : \"Ce régime a empoisonné la Côte d'Ivoire\"","date":"2015-08-30","newspaper":"Notre Voie","country":"Côte d'Ivoire","type":"articles"}]},{"name":"Burkina Faso","lat":12.5,"lng":-1.66667,"country":"Burkina Faso","articleCount":1,"articles":[{"id":"46351","title":"Affi N'Guessan depuis Abengourou : \"Ce régime a empoisonné la Côte d'Ivoire\"","date":"2015-08-30","newspaper":"Notre Voie","country":"Côte d'Ivoire","type":"articles"}]},{"name":"Indénié","lat":6.73333333,"lng":-3.48333333,"country":"Côte d'Ivoire","articleCount":1,"articles":[{"id":"46351","title":"Affi N'Guessan depuis Abengourou : \"Ce régime a empoisonné la Côte d'Ivoire\"","date":"2015-08-30","newspaper":"Notre Voie","country":"Côte d'Ivoire","type":"articles"}]},{"name":"Riviera Palmeraie","lat":5.36992,"lng":-3.95658,"country":"Côte d'Ivoire","articleCount":1,"articles":[{"id":"46676","title":"Solidarité aux musulmans : le ministère du Budget soutient les musulmans de Notre Voie","date":"2014-07-20","newspaper":"Notre Voie","country":"Côte d'Ivoire","type":"articles"}]},{"name":"Cocody","lat":5.35,"lng":-3.9666666666667,"country":"Côte d'Ivoire","articleCount":1,"articles":[{"id":"46678","title":"Célébration de la Nuit du destin : Boikary Fofana dénonce le phénomène des «microbes»","date":"2014-07-25","newspaper":"Notre Voie","country":"Côte d'Ivoire","type":"articles"}]},{"name":"Mosquée An Nour Riviera 2","lat":5.351224783601886,"lng":-3.980895863811308,"country":"Côte d'Ivoire","articleCount":1,"articles":[{"id":"46678","title":"Célébration de la Nuit du destin : Boikary Fofana dénonce le phénomène des «microbes»","date":"2014-07-25","newspaper":"Notre Voie","country":"Côte d'Ivoire","type":"articles"}]},{"name":"Daloa","lat":6.866667,"lng":-6.45,"country":"Côte d'Ivoire","articleCount":1,"articles":[{"id":"48296","title":"Daloa : l'imam Bamba contre les \"microbes\"","date":"2017-06-24","newspaper":"Notre Voie","country":"Côte d'Ivoire","type":"articles"}]},{"name":"Paris","lat":48.85341,"lng":2.3488,"country":"France","articleCount":1,"articles":[{"id":"48981","title":"Célébration de l'Aïd el Fitr","date":"2017-06-27","newspaper":"Le Patriote","country":"Côte d'Ivoire","type":"articles"}]},{"name":"Grande mosquée des II-Plateaux Aghien","lat":5.382535557731071,"lng":-3.993870062858185,"country":"Côte d'Ivoire","articleCount":1,"articles":[{"id":"48981","title":"Célébration de l'Aïd el Fitr","date":"2017-06-27","newspaper":"Le Patriote","country":"Côte d'Ivoire","type":"articles"}]},{"name":"Aghien","lat":5.388123,"lng":-3.999984,"country":"Côte d'Ivoire","articleCount":1,"articles":[{"id":"48981","title":"Célébration de l'Aïd el Fitr","date":"2017-06-27","newspaper":"Le Patriote","country":"Côte d'Ivoire","type":"articles"}]},{"name":"Bouaké","lat":7.68333,"lng":-5.03306,"country":"Côte d'Ivoire","articleCount":1,"articles":[{"id":"48981","title":"Célébration de l'Aïd el Fitr","date":"2017-06-27","newspaper":"Le Patriote","country":"Côte d'Ivoire","type":"articles"}]},{"name":"Guiglo","lat":6.5436111111111,"lng":-7.4933333333333,"country":"Côte d'Ivoire","articleCount":1,"articles":[{"id":"48981","title":"Célébration de l'Aïd el Fitr","date":"2017-06-27","newspaper":"Le Patriote","country":"Côte d'Ivoire","type":"articles"}]},{"name":"Abobo Banco","lat":5.41301,"lng":-4.02092,"country":"Côte d'Ivoire","articleCount":1,"articles":[{"id":"49032","title":"Interview. L'imam Mahmoud Sanogo : \"On ne doit pas se cotiser pour acheter un bœuf pour le sacrifice\"","date":"2017-08-31","newspaper":"Le Patriote","country":"Côte d'Ivoire","type":"articles"}]},{"name":"La Mecque","lat":21.4225,"lng":39.826111,"country":"Saudi Arabia","articleCount":1,"articles":[{"id":"49032","title":"Interview. L'imam Mahmoud Sanogo : \"On ne doit pas se cotiser pour acheter un bœuf pour le sacrifice\"","date":"2017-08-31","newspaper":"Le Patriote","country":"Côte d'Ivoire","type":"articles"}]}]}