{"id":1007,"name":"Boureima Diallo","type":"Personnes","stats":{"articleCount":1,"countries":["Benin","Burkina Faso","Morocco","Niger","Saudi Arabia","Uganda"],"dateRange":{"first":"1999-06-29","last":"1999-06-29"}},"locations":[{"name":"Djeddah","lat":21.49012,"lng":39.18624,"country":"Saudi Arabia","articleCount":1,"articles":[{"id":"5977","title":"26e CIMAE : pour une diplomatie de paix","date":"1999-06-29","newspaper":"L'Observateur Paalga","country":"Burkina Faso","type":"articles"}]},{"name":"Ouaga 2000","lat":12.31538,"lng":-1.50888,"country":"Burkina Faso","articleCount":1,"articles":[{"id":"5977","title":"26e CIMAE : pour une diplomatie de paix","date":"1999-06-29","newspaper":"L'Observateur Paalga","country":"Burkina Faso","type":"articles"}]},{"name":"Burkina Faso","lat":12.5,"lng":-1.66667,"country":"Burkina Faso","articleCount":1,"articles":[{"id":"5977","title":"26e CIMAE : pour une diplomatie de paix","date":"1999-06-29","newspaper":"L'Observateur Paalga","country":"Burkina Faso","type":"articles"}]},{"name":"Arabie saoudite","lat":25.0,"lng":45.0,"country":"Saudi Arabia","articleCount":1,"articles":[{"id":"5977","title":"26e CIMAE : pour une diplomatie de paix","date":"1999-06-29","newspaper":"L'Observateur Paalga","country":"Burkina Faso","type":"articles"}]},{"name":"Rabat","lat":34.025277777778,"lng":-6.8361111111111,"country":"Morocco","articleCount":1,"articles":[{"id":"5977","title":"26e CIMAE : pour une diplomatie de paix","date":"1999-06-29","newspaper":"L'Observateur Paalga","country":"Burkina Faso","type":"articles"}]},{"name":"Istanbul","lat":41.01,"lng":28.960278,"country":"Benin","articleCount":1,"articles":[{"id":"5977","title":"26e CIMAE : pour une diplomatie de paix","date":"1999-06-29","newspaper":"L'Observateur Paalga","country":"Burkina Faso","type":"articles"}]},{"name":"Casablanca","lat":33.599166666667,"lng":-7.62,"country":"Morocco","articleCount":1,"articles":[{"id":"5977","title":"26e CIMAE : pour une diplomatie de paix","date":"1999-06-29","newspaper":"L'Observateur Paalga","country":"Burkina Faso","type":"articles"}]},{"name":"Niger","lat":18.0,"lng":9.0,"country":"Niger","articleCount":1,"articles":[{"id":"5977","title":"26e CIMAE : pour une diplomatie de paix","date":"1999-06-29","newspaper":"L'Observateur Paalga","country":"Burkina Faso","type":"articles"}]},{"name":"Ouganda","lat":1.28,"lng":32.39,"country":"Uganda","articleCount":1,"articles":[{"id":"5977","title":"26e CIMAE : pour une diplomatie de paix","date":"1999-06-29","newspaper":"L'Observateur Paalga","country":"Burkina Faso","type":"articles"}]}]}