{"id":1048,"name":"Hawa Guira Bissira","type":"Personnes","stats":{"articleCount":1,"countries":["Burkina Faso","Niger"],"dateRange":{"first":"2019-08-07","last":"2019-08-07"}},"locations":[{"name":"Dédougou","lat":12.46338,"lng":-3.46075,"country":"Burkina Faso","articleCount":1,"articles":[{"id":"3569","title":"Foyers coraniques : Iqra donne « une seconde chance » aux apprenants","date":"2019-08-07","newspaper":"Sidwaya","country":"Burkina Faso","type":"articles"}]},{"name":"Djibo","lat":14.12526,"lng":-1.6249,"country":"Burkina Faso","articleCount":1,"articles":[{"id":"3569","title":"Foyers coraniques : Iqra donne « une seconde chance » aux apprenants","date":"2019-08-07","newspaper":"Sidwaya","country":"Burkina Faso","type":"articles"}]},{"name":"Dori","lat":14.0341,"lng":-0.03261,"country":"Burkina Faso","articleCount":1,"articles":[{"id":"3569","title":"Foyers coraniques : Iqra donne « une seconde chance » aux apprenants","date":"2019-08-07","newspaper":"Sidwaya","country":"Burkina Faso","type":"articles"}]},{"name":"Fada N'Gourma","lat":12.06157,"lng":0.35843,"country":"Burkina Faso","articleCount":1,"articles":[{"id":"3569","title":"Foyers coraniques : Iqra donne « une seconde chance » aux apprenants","date":"2019-08-07","newspaper":"Sidwaya","country":"Burkina Faso","type":"articles"}]},{"name":"Kaya","lat":13.09167,"lng":-1.08444,"country":"Burkina Faso","articleCount":1,"articles":[{"id":"3569","title":"Foyers coraniques : Iqra donne « une seconde chance » aux apprenants","date":"2019-08-07","newspaper":"Sidwaya","country":"Burkina Faso","type":"articles"}]},{"name":"Namissiguima","lat":13.59468,"lng":-2.21892,"country":"Burkina Faso","articleCount":1,"articles":[{"id":"3569","title":"Foyers coraniques : Iqra donne « une seconde chance » aux apprenants","date":"2019-08-07","newspaper":"Sidwaya","country":"Burkina Faso","type":"articles"}]},{"name":"Ouagadougou","lat":12.36566,"lng":-1.53388,"country":"Burkina Faso","articleCount":1,"articles":[{"id":"3569","title":"Foyers coraniques : Iqra donne « une seconde chance » aux apprenants","date":"2019-08-07","newspaper":"Sidwaya","country":"Burkina Faso","type":"articles"}]},{"name":"Burkina Faso","lat":12.5,"lng":-1.66667,"country":"Burkina Faso","articleCount":1,"articles":[{"id":"3569","title":"Foyers coraniques : Iqra donne « une seconde chance » aux apprenants","date":"2019-08-07","newspaper":"Sidwaya","country":"Burkina Faso","type":"articles"}]},{"name":"Niger","lat":18.0,"lng":9.0,"country":"Niger","articleCount":1,"articles":[{"id":"3569","title":"Foyers coraniques : Iqra donne « une seconde chance » aux apprenants","date":"2019-08-07","newspaper":"Sidwaya","country":"Burkina Faso","type":"articles"}]},{"name":"Titao","lat":13.766735,"lng":-2.073643,"country":"Burkina Faso","articleCount":1,"articles":[{"id":"3569","title":"Foyers coraniques : Iqra donne « une seconde chance » aux apprenants","date":"2019-08-07","newspaper":"Sidwaya","country":"Burkina Faso","type":"articles"}]},{"name":"Hauts-Bassins","lat":0,"lng":0,"country":"Unknown","articleCount":1,"articles":[{"id":"3569","title":"Foyers coraniques : Iqra donne « une seconde chance » aux apprenants","date":"2019-08-07","newspaper":"Sidwaya","country":"Burkina Faso","type":"articles"}]},{"name":"Boucle du Mouhoun","lat":12.5,"lng":-3.5,"country":"Burkina Faso","articleCount":1,"articles":[{"id":"3569","title":"Foyers coraniques : Iqra donne « une seconde chance » aux apprenants","date":"2019-08-07","newspaper":"Sidwaya","country":"Burkina Faso","type":"articles"}]}]}