{"id":1073,"name":"Issaka Kafando","type":"Personnes","stats":{"articleCount":3,"countries":["Burkina Faso","Ghana","Nigeria","Saudi Arabia"],"dateRange":{"first":"1993-07-26","last":"2015-06-05"}},"locations":[{"name":"Ouagadougou","lat":12.36566,"lng":-1.53388,"country":"Burkina Faso","articleCount":3,"articles":[{"id":"6524","title":"Premier séminaire de formation du Conseil islamique burkinabè : réorganiser les fidèles à la base","date":"1993-07-26","newspaper":"Sidwaya","country":"Burkina Faso","type":"articles"},{"id":"10560","title":"L'Autre Regard #23-24","date":"2015-02-05","newspaper":"L'Autre Regard","country":"Burkina Faso","type":"publications"},{"id":"10601","title":"L'Autre Regard #27","date":"2015-06-05","newspaper":"L'Autre Regard","country":"Burkina Faso","type":"publications"}]},{"name":"Bobo-Dioulasso","lat":11.17715,"lng":-4.2979,"country":"Burkina Faso","articleCount":2,"articles":[{"id":"10560","title":"L'Autre Regard #23-24","date":"2015-02-05","newspaper":"L'Autre Regard","country":"Burkina Faso","type":"publications"},{"id":"10601","title":"L'Autre Regard #27","date":"2015-06-05","newspaper":"L'Autre Regard","country":"Burkina Faso","type":"publications"}]},{"name":"Médine","lat":24.46861,"lng":39.61417,"country":"Saudi Arabia","articleCount":2,"articles":[{"id":"10560","title":"L'Autre Regard #23-24","date":"2015-02-05","newspaper":"L'Autre Regard","country":"Burkina Faso","type":"publications"},{"id":"10601","title":"L'Autre Regard #27","date":"2015-06-05","newspaper":"L'Autre Regard","country":"Burkina Faso","type":"publications"}]},{"name":"Kadiogo","lat":12.333333,"lng":-1.5,"country":"Burkina Faso","articleCount":1,"articles":[{"id":"6524","title":"Premier séminaire de formation du Conseil islamique burkinabè : réorganiser les fidèles à la base","date":"1993-07-26","newspaper":"Sidwaya","country":"Burkina Faso","type":"articles"}]},{"name":"Burkina Faso","lat":12.5,"lng":-1.66667,"country":"Burkina Faso","articleCount":1,"articles":[{"id":"6524","title":"Premier séminaire de formation du Conseil islamique burkinabè : réorganiser les fidèles à la base","date":"1993-07-26","newspaper":"Sidwaya","country":"Burkina Faso","type":"articles"}]},{"name":"Fada N'Gourma","lat":12.06157,"lng":0.35843,"country":"Burkina Faso","articleCount":1,"articles":[{"id":"10560","title":"L'Autre Regard #23-24","date":"2015-02-05","newspaper":"L'Autre Regard","country":"Burkina Faso","type":"publications"}]},{"name":"Kaya","lat":13.09167,"lng":-1.08444,"country":"Burkina Faso","articleCount":1,"articles":[{"id":"10560","title":"L'Autre Regard #23-24","date":"2015-02-05","newspaper":"L'Autre Regard","country":"Burkina Faso","type":"publications"}]},{"name":"Ramatoulaye","lat":13.633333,"lng":-2.316667,"country":"Burkina Faso","articleCount":1,"articles":[{"id":"10560","title":"L'Autre Regard #23-24","date":"2015-02-05","newspaper":"L'Autre Regard","country":"Burkina Faso","type":"publications"}]},{"name":"Koupéla","lat":12.17864,"lng":-0.35103,"country":"Burkina Faso","articleCount":1,"articles":[{"id":"10560","title":"L'Autre Regard #23-24","date":"2015-02-05","newspaper":"L'Autre Regard","country":"Burkina Faso","type":"publications"}]},{"name":"Boulsa","lat":12.65,"lng":-0.567,"country":"Burkina Faso","articleCount":1,"articles":[{"id":"10601","title":"L'Autre Regard #27","date":"2015-06-05","newspaper":"L'Autre Regard","country":"Burkina Faso","type":"publications"}]},{"name":"Djibo","lat":14.12526,"lng":-1.6249,"country":"Burkina Faso","articleCount":1,"articles":[{"id":"10601","title":"L'Autre Regard #27","date":"2015-06-05","newspaper":"L'Autre Regard","country":"Burkina Faso","type":"publications"}]},{"name":"Koudougou","lat":12.25263,"lng":-2.36272,"country":"Burkina Faso","articleCount":1,"articles":[{"id":"10601","title":"L'Autre Regard #27","date":"2015-06-05","newspaper":"L'Autre Regard","country":"Burkina Faso","type":"publications"}]},{"name":"Orodara","lat":10.98568,"lng":-4.92612,"country":"Burkina Faso","articleCount":1,"articles":[{"id":"10601","title":"L'Autre Regard #27","date":"2015-06-05","newspaper":"L'Autre Regard","country":"Burkina Faso","type":"publications"}]},{"name":"Ouahigouya","lat":13.58278,"lng":-2.42158,"country":"Burkina Faso","articleCount":1,"articles":[{"id":"10601","title":"L'Autre Regard #27","date":"2015-06-05","newspaper":"L'Autre Regard","country":"Burkina Faso","type":"publications"}]},{"name":"Soum","lat":14.1,"lng":-1.633333,"country":"Burkina Faso","articleCount":1,"articles":[{"id":"10601","title":"L'Autre Regard #27","date":"2015-06-05","newspaper":"L'Autre Regard","country":"Burkina Faso","type":"publications"}]},{"name":"Ghana","lat":8.1,"lng":-1.2,"country":"Ghana","articleCount":1,"articles":[{"id":"10601","title":"L'Autre Regard #27","date":"2015-06-05","newspaper":"L'Autre Regard","country":"Burkina Faso","type":"publications"}]},{"name":"Nigéria","lat":10.0,"lng":8.0,"country":"Nigeria","articleCount":1,"articles":[{"id":"10601","title":"L'Autre Regard #27","date":"2015-06-05","newspaper":"L'Autre Regard","country":"Burkina Faso","type":"publications"}]}]}