{"id":1159,"name":"Pierre Tapsoba","type":"Personnes","stats":{"articleCount":1,"countries":["Burkina Faso","Côte d'Ivoire","Togo"],"dateRange":{"first":"2007-03-23","last":"2007-03-23"}},"locations":[{"name":"Kaya","lat":13.09167,"lng":-1.08444,"country":"Burkina Faso","articleCount":1,"articles":[{"id":"2702","title":"Une lettre pour Laye : où est passé le gardien de Maïga ?","date":"2007-03-23","newspaper":"L'Observateur Paalga","country":"Burkina Faso","type":"articles"}]},{"name":"Ouagadougou","lat":12.36566,"lng":-1.53388,"country":"Burkina Faso","articleCount":1,"articles":[{"id":"2702","title":"Une lettre pour Laye : où est passé le gardien de Maïga ?","date":"2007-03-23","newspaper":"L'Observateur Paalga","country":"Burkina Faso","type":"articles"}]},{"name":"Ouahigouya","lat":13.58278,"lng":-2.42158,"country":"Burkina Faso","articleCount":1,"articles":[{"id":"2702","title":"Une lettre pour Laye : où est passé le gardien de Maïga ?","date":"2007-03-23","newspaper":"L'Observateur Paalga","country":"Burkina Faso","type":"articles"}]},{"name":"Bogodogo","lat":12.352169909817203,"lng":-1.4886685037354437,"country":"Burkina Faso","articleCount":1,"articles":[{"id":"2702","title":"Une lettre pour Laye : où est passé le gardien de Maïga ?","date":"2007-03-23","newspaper":"L'Observateur Paalga","country":"Burkina Faso","type":"articles"}]},{"name":"Togo","lat":8.66667,"lng":1.08333,"country":"Togo","articleCount":1,"articles":[{"id":"2702","title":"Une lettre pour Laye : où est passé le gardien de Maïga ?","date":"2007-03-23","newspaper":"L'Observateur Paalga","country":"Burkina Faso","type":"articles"}]},{"name":"Yatenga","lat":13.583333,"lng":-2.416667,"country":"Burkina Faso","articleCount":1,"articles":[{"id":"2702","title":"Une lettre pour Laye : où est passé le gardien de Maïga ?","date":"2007-03-23","newspaper":"L'Observateur Paalga","country":"Burkina Faso","type":"articles"}]},{"name":"Gounghin","lat":12.35641975819987,"lng":-1.5480543813205,"country":"Burkina Faso","articleCount":1,"articles":[{"id":"2702","title":"Une lettre pour Laye : où est passé le gardien de Maïga ?","date":"2007-03-23","newspaper":"L'Observateur Paalga","country":"Burkina Faso","type":"articles"}]},{"name":"Burkina Faso","lat":12.5,"lng":-1.66667,"country":"Burkina Faso","articleCount":1,"articles":[{"id":"2702","title":"Une lettre pour Laye : où est passé le gardien de Maïga ?","date":"2007-03-23","newspaper":"L'Observateur Paalga","country":"Burkina Faso","type":"articles"}]},{"name":"Côte d'Ivoire","lat":8.0,"lng":-5.5,"country":"Côte d'Ivoire","articleCount":1,"articles":[{"id":"2702","title":"Une lettre pour Laye : où est passé le gardien de Maïga ?","date":"2007-03-23","newspaper":"L'Observateur Paalga","country":"Burkina Faso","type":"articles"}]}]}