{"id":1182,"name":"Sidiki Ouédraogo","type":"Personnes","stats":{"articleCount":3,"countries":["Burkina Faso","Saudi Arabia","Sudan"],"dateRange":{"first":"1982-07-20","last":"1995-08-02"}},"locations":[{"name":"Ouagadougou","lat":12.36566,"lng":-1.53388,"country":"Burkina Faso","articleCount":2,"articles":[{"id":"6663","title":"Religion : avant la grande prière","date":"1982-07-20","newspaper":"L'Observateur","country":"Burkina Faso","type":"articles"},{"id":"7978","title":"La communauté musulmane du Burkina Faso : une évolution conflictuelle","date":"1993-05-27","newspaper":"Le Pays","country":"Burkina Faso","type":"articles"}]},{"name":"Burkina Faso","lat":12.5,"lng":-1.66667,"country":"Burkina Faso","articleCount":2,"articles":[{"id":"7978","title":"La communauté musulmane du Burkina Faso : une évolution conflictuelle","date":"1993-05-27","newspaper":"Le Pays","country":"Burkina Faso","type":"articles"},{"id":"8514","title":"Inauguration de la mosquée de Carrefour : prier pour la concorde et la prospérité","date":"1995-08-02","newspaper":"Sidwaya","country":"Burkina Faso","type":"articles"}]},{"name":"Grande Mosquée de Ouagadougou","lat":12.36625,"lng":-1.52122,"country":"Burkina Faso","articleCount":1,"articles":[{"id":"6663","title":"Religion : avant la grande prière","date":"1982-07-20","newspaper":"L'Observateur","country":"Burkina Faso","type":"articles"}]},{"name":"Bobo-Dioulasso","lat":11.17715,"lng":-4.2979,"country":"Burkina Faso","articleCount":1,"articles":[{"id":"7978","title":"La communauté musulmane du Burkina Faso : une évolution conflictuelle","date":"1993-05-27","newspaper":"Le Pays","country":"Burkina Faso","type":"articles"}]},{"name":"Koudougou","lat":12.25263,"lng":-2.36272,"country":"Burkina Faso","articleCount":1,"articles":[{"id":"7978","title":"La communauté musulmane du Burkina Faso : une évolution conflictuelle","date":"1993-05-27","newspaper":"Le Pays","country":"Burkina Faso","type":"articles"}]},{"name":"Soudan","lat":16.0,"lng":30.0,"country":"Sudan","articleCount":1,"articles":[{"id":"7978","title":"La communauté musulmane du Burkina Faso : une évolution conflictuelle","date":"1993-05-27","newspaper":"Le Pays","country":"Burkina Faso","type":"articles"}]},{"name":"La Mecque","lat":21.4225,"lng":39.826111,"country":"Saudi Arabia","articleCount":1,"articles":[{"id":"7978","title":"La communauté musulmane du Burkina Faso : une évolution conflictuelle","date":"1993-05-27","newspaper":"Le Pays","country":"Burkina Faso","type":"articles"}]},{"name":"Poura","lat":11.616666666667,"lng":-2.75,"country":"Burkina Faso","articleCount":1,"articles":[{"id":"8514","title":"Inauguration de la mosquée de Carrefour : prier pour la concorde et la prospérité","date":"1995-08-02","newspaper":"Sidwaya","country":"Burkina Faso","type":"articles"}]},{"name":"Sanguié","lat":12.316666666667,"lng":-2.4666666666667,"country":"Burkina Faso","articleCount":1,"articles":[{"id":"8514","title":"Inauguration de la mosquée de Carrefour : prier pour la concorde et la prospérité","date":"1995-08-02","newspaper":"Sidwaya","country":"Burkina Faso","type":"articles"}]}]}