{"id":1407,"name":"Machioudi Dissou","type":"Personnes","stats":{"articleCount":3,"countries":["Benin","Guinea","Togo"],"dateRange":{"first":"1973-08-14","last":"1984-01-31"}},"locations":[{"name":"Porto-Novo","lat":6.49646,"lng":2.60359,"country":"Benin","articleCount":3,"articles":[{"id":"6824","title":"La communauté musulmane s'organise","date":"1976-08-06","newspaper":"Ehuzu","country":"Benin","type":"articles"},{"id":"8580","title":"Vers l'union de la Communauté islamique du Dahomey","date":"1973-08-14","newspaper":"Daho-Express","country":"Benin","type":"articles"},{"id":"8671","title":"L'Union islamique ou l'expression d'une prise de conscience","date":"1984-01-31","newspaper":"Ehuzu","country":"Benin","type":"articles"}]},{"name":"Bénin","lat":9.5,"lng":2.25,"country":"Benin","articleCount":3,"articles":[{"id":"6824","title":"La communauté musulmane s'organise","date":"1976-08-06","newspaper":"Ehuzu","country":"Benin","type":"articles"},{"id":"8580","title":"Vers l'union de la Communauté islamique du Dahomey","date":"1973-08-14","newspaper":"Daho-Express","country":"Benin","type":"articles"},{"id":"8671","title":"L'Union islamique ou l'expression d'une prise de conscience","date":"1984-01-31","newspaper":"Ehuzu","country":"Benin","type":"articles"}]},{"name":"Natitingou","lat":10.30416,"lng":1.37962,"country":"Benin","articleCount":2,"articles":[{"id":"6824","title":"La communauté musulmane s'organise","date":"1976-08-06","newspaper":"Ehuzu","country":"Benin","type":"articles"},{"id":"8671","title":"L'Union islamique ou l'expression d'une prise de conscience","date":"1984-01-31","newspaper":"Ehuzu","country":"Benin","type":"articles"}]},{"name":"Parakou","lat":9.33716,"lng":2.63031,"country":"Benin","articleCount":2,"articles":[{"id":"6824","title":"La communauté musulmane s'organise","date":"1976-08-06","newspaper":"Ehuzu","country":"Benin","type":"articles"},{"id":"8671","title":"L'Union islamique ou l'expression d'une prise de conscience","date":"1984-01-31","newspaper":"Ehuzu","country":"Benin","type":"articles"}]},{"name":"Ouémé","lat":6.5,"lng":2.6,"country":"Benin","articleCount":2,"articles":[{"id":"6824","title":"La communauté musulmane s'organise","date":"1976-08-06","newspaper":"Ehuzu","country":"Benin","type":"articles"},{"id":"8671","title":"L'Union islamique ou l'expression d'une prise de conscience","date":"1984-01-31","newspaper":"Ehuzu","country":"Benin","type":"articles"}]},{"name":"Borgou","lat":10.74821385974019,"lng":0.6196353130056622,"country":"Togo","articleCount":2,"articles":[{"id":"6824","title":"La communauté musulmane s'organise","date":"1976-08-06","newspaper":"Ehuzu","country":"Benin","type":"articles"},{"id":"8671","title":"L'Union islamique ou l'expression d'une prise de conscience","date":"1984-01-31","newspaper":"Ehuzu","country":"Benin","type":"articles"}]},{"name":"Kétou","lat":7.45,"lng":2.626,"country":"Benin","articleCount":1,"articles":[{"id":"6824","title":"La communauté musulmane s'organise","date":"1976-08-06","newspaper":"Ehuzu","country":"Benin","type":"articles"}]},{"name":"Abomey","lat":7.18286,"lng":1.99119,"country":"Benin","articleCount":1,"articles":[{"id":"8671","title":"L'Union islamique ou l'expression d'une prise de conscience","date":"1984-01-31","newspaper":"Ehuzu","country":"Benin","type":"articles"}]},{"name":"Cotonou","lat":6.36536,"lng":2.41833,"country":"Benin","articleCount":1,"articles":[{"id":"8671","title":"L'Union islamique ou l'expression d'une prise de conscience","date":"1984-01-31","newspaper":"Ehuzu","country":"Benin","type":"articles"}]},{"name":"Guinée","lat":10.83333,"lng":-10.66667,"country":"Guinea","articleCount":1,"articles":[{"id":"8671","title":"L'Union islamique ou l'expression d'une prise de conscience","date":"1984-01-31","newspaper":"Ehuzu","country":"Benin","type":"articles"}]},{"name":"Athiémé","lat":6.5808,"lng":1.6696,"country":"Benin","articleCount":1,"articles":[{"id":"8671","title":"L'Union islamique ou l'expression d'une prise de conscience","date":"1984-01-31","newspaper":"Ehuzu","country":"Benin","type":"articles"}]},{"name":"Atacora","lat":10.3,"lng":1.366667,"country":"Benin","articleCount":1,"articles":[{"id":"8671","title":"L'Union islamique ou l'expression d'une prise de conscience","date":"1984-01-31","newspaper":"Ehuzu","country":"Benin","type":"articles"}]},{"name":"Mono","lat":6.6333333333333,"lng":1.7166666666667,"country":"Benin","articleCount":1,"articles":[{"id":"8671","title":"L'Union islamique ou l'expression d'une prise de conscience","date":"1984-01-31","newspaper":"Ehuzu","country":"Benin","type":"articles"}]}]}