{"id":1460,"name":"Mama Arouna","type":"Personnes","stats":{"articleCount":2,"countries":["Benin","Egypt","Saudi Arabia"],"dateRange":{"first":"1972-01-05","last":"1972-09-22"}},"locations":[{"name":"Cotonou","lat":6.36536,"lng":2.41833,"country":"Benin","articleCount":1,"articles":[{"id":"6780","title":"Départ du Ier contingent de pèlerins pour la Mecque","date":"1972-01-05","newspaper":"Daho-Express","country":"Benin","type":"articles"}]},{"name":"Djeddah","lat":21.49012,"lng":39.18624,"country":"Saudi Arabia","articleCount":1,"articles":[{"id":"6780","title":"Départ du Ier contingent de pèlerins pour la Mecque","date":"1972-01-05","newspaper":"Daho-Express","country":"Benin","type":"articles"}]},{"name":"Lagos","lat":6.45,"lng":3.4,"country":"Benin","articleCount":1,"articles":[{"id":"6780","title":"Départ du Ier contingent de pèlerins pour la Mecque","date":"1972-01-05","newspaper":"Daho-Express","country":"Benin","type":"articles"}]},{"name":"Le Caire","lat":30.044444,"lng":31.235833,"country":"Egypt","articleCount":1,"articles":[{"id":"6780","title":"Départ du Ier contingent de pèlerins pour la Mecque","date":"1972-01-05","newspaper":"Daho-Express","country":"Benin","type":"articles"}]},{"name":"Porto-Novo","lat":6.49646,"lng":2.60359,"country":"Benin","articleCount":1,"articles":[{"id":"6780","title":"Départ du Ier contingent de pèlerins pour la Mecque","date":"1972-01-05","newspaper":"Daho-Express","country":"Benin","type":"articles"}]},{"name":"La Mecque","lat":21.4225,"lng":39.826111,"country":"Saudi Arabia","articleCount":1,"articles":[{"id":"8600","title":"Le prochain voyage à la Mecque à l'ordre du jour de M. Arouna","date":"1972-09-22","newspaper":"Daho-Express","country":"Benin","type":"articles"}]}]}