{"id":1470,"name":"Inoussa Abiodoun Fagbémi","type":"Personnes","stats":{"articleCount":5,"countries":["Benin","Saudi Arabia","Togo"],"dateRange":{"first":"1972-11-14","last":"1986-03-25"}},"locations":[{"name":"La Mecque","lat":21.4225,"lng":39.826111,"country":"Saudi Arabia","articleCount":4,"articles":[{"id":"6790","title":"Création d'un comité révolutionnaire pour les pélérins à la Mecque","date":"1972-11-14","newspaper":"Daho-Express","country":"Benin","type":"articles"},{"id":"6825","title":"La communauté musulmane du Bénin participe à l'œuvre de construction nationale","date":"1976-06-09","newspaper":"Ehuzu","country":"Benin","type":"articles"},{"id":"6853","title":"Organisation du pèlerinage à la Mecque","date":"1977-09-21","newspaper":"Ehuzu","country":"Benin","type":"articles"},{"id":"6919","title":"Intronisation du chef spirituel de la deuxième mosquée centrale de Porto-Novo","date":"1986-03-25","newspaper":"Ehuzu","country":"Benin","type":"articles"}]},{"name":"Porto-Novo","lat":6.49646,"lng":2.60359,"country":"Benin","articleCount":4,"articles":[{"id":"6824","title":"La communauté musulmane s'organise","date":"1976-08-06","newspaper":"Ehuzu","country":"Benin","type":"articles"},{"id":"6825","title":"La communauté musulmane du Bénin participe à l'œuvre de construction nationale","date":"1976-06-09","newspaper":"Ehuzu","country":"Benin","type":"articles"},{"id":"6853","title":"Organisation du pèlerinage à la Mecque","date":"1977-09-21","newspaper":"Ehuzu","country":"Benin","type":"articles"},{"id":"6919","title":"Intronisation du chef spirituel de la deuxième mosquée centrale de Porto-Novo","date":"1986-03-25","newspaper":"Ehuzu","country":"Benin","type":"articles"}]},{"name":"Parakou","lat":9.33716,"lng":2.63031,"country":"Benin","articleCount":3,"articles":[{"id":"6824","title":"La communauté musulmane s'organise","date":"1976-08-06","newspaper":"Ehuzu","country":"Benin","type":"articles"},{"id":"6825","title":"La communauté musulmane du Bénin participe à l'œuvre de construction nationale","date":"1976-06-09","newspaper":"Ehuzu","country":"Benin","type":"articles"},{"id":"6853","title":"Organisation du pèlerinage à la Mecque","date":"1977-09-21","newspaper":"Ehuzu","country":"Benin","type":"articles"}]},{"name":"Ouémé","lat":6.5,"lng":2.6,"country":"Benin","articleCount":3,"articles":[{"id":"6824","title":"La communauté musulmane s'organise","date":"1976-08-06","newspaper":"Ehuzu","country":"Benin","type":"articles"},{"id":"6853","title":"Organisation du pèlerinage à la Mecque","date":"1977-09-21","newspaper":"Ehuzu","country":"Benin","type":"articles"},{"id":"6919","title":"Intronisation du chef spirituel de la deuxième mosquée centrale de Porto-Novo","date":"1986-03-25","newspaper":"Ehuzu","country":"Benin","type":"articles"}]},{"name":"Bénin","lat":9.5,"lng":2.25,"country":"Benin","articleCount":2,"articles":[{"id":"6824","title":"La communauté musulmane s'organise","date":"1976-08-06","newspaper":"Ehuzu","country":"Benin","type":"articles"},{"id":"6825","title":"La communauté musulmane du Bénin participe à l'œuvre de construction nationale","date":"1976-06-09","newspaper":"Ehuzu","country":"Benin","type":"articles"}]},{"name":"Borgou","lat":10.74821385974019,"lng":0.6196353130056622,"country":"Togo","articleCount":2,"articles":[{"id":"6824","title":"La communauté musulmane s'organise","date":"1976-08-06","newspaper":"Ehuzu","country":"Benin","type":"articles"},{"id":"6853","title":"Organisation du pèlerinage à la Mecque","date":"1977-09-21","newspaper":"Ehuzu","country":"Benin","type":"articles"}]},{"name":"Cotonou","lat":6.36536,"lng":2.41833,"country":"Benin","articleCount":2,"articles":[{"id":"6825","title":"La communauté musulmane du Bénin participe à l'œuvre de construction nationale","date":"1976-06-09","newspaper":"Ehuzu","country":"Benin","type":"articles"},{"id":"6853","title":"Organisation du pèlerinage à la Mecque","date":"1977-09-21","newspaper":"Ehuzu","country":"Benin","type":"articles"}]},{"name":"Natitingou","lat":10.30416,"lng":1.37962,"country":"Benin","articleCount":1,"articles":[{"id":"6824","title":"La communauté musulmane s'organise","date":"1976-08-06","newspaper":"Ehuzu","country":"Benin","type":"articles"}]},{"name":"Kétou","lat":7.45,"lng":2.626,"country":"Benin","articleCount":1,"articles":[{"id":"6824","title":"La communauté musulmane s'organise","date":"1976-08-06","newspaper":"Ehuzu","country":"Benin","type":"articles"}]},{"name":"Dantokpa","lat":6.374473399413714,"lng":2.4310254886739333,"country":"Benin","articleCount":1,"articles":[{"id":"6825","title":"La communauté musulmane du Bénin participe à l'œuvre de construction nationale","date":"1976-06-09","newspaper":"Ehuzu","country":"Benin","type":"articles"}]},{"name":"Djeddah","lat":21.49012,"lng":39.18624,"country":"Saudi Arabia","articleCount":1,"articles":[{"id":"6853","title":"Organisation du pèlerinage à la Mecque","date":"1977-09-21","newspaper":"Ehuzu","country":"Benin","type":"articles"}]},{"name":"Djougou","lat":9.70853,"lng":1.66598,"country":"Benin","articleCount":1,"articles":[{"id":"6853","title":"Organisation du pèlerinage à la Mecque","date":"1977-09-21","newspaper":"Ehuzu","country":"Benin","type":"articles"}]},{"name":"Mono","lat":6.6333333333333,"lng":1.7166666666667,"country":"Benin","articleCount":1,"articles":[{"id":"6853","title":"Organisation du pèlerinage à la Mecque","date":"1977-09-21","newspaper":"Ehuzu","country":"Benin","type":"articles"}]},{"name":"Mosquée centrale de Porto-Novo","lat":6.470333,"lng":2.626611,"country":"Benin","articleCount":1,"articles":[{"id":"6919","title":"Intronisation du chef spirituel de la deuxième mosquée centrale de Porto-Novo","date":"1986-03-25","newspaper":"Ehuzu","country":"Benin","type":"articles"}]}]}