{"id":1784,"name":"Fatoumata Bamba","type":"Personnes","stats":{"articleCount":1,"countries":["Côte d'Ivoire","Saudi Arabia"],"dateRange":{"first":"2009-01-02","last":"2009-01-02"}},"locations":[{"name":"Abidjan","lat":5.35444,"lng":-4.00167,"country":"Côte d'Ivoire","articleCount":1,"articles":[{"id":"46556","title":"Hadj 2008 : enfin, tous les pèlerins sont là !","date":"2009-01-02","newspaper":"Notre Voie","country":"Côte d'Ivoire","type":"articles"}]},{"name":"Arabie saoudite","lat":25.0,"lng":45.0,"country":"Saudi Arabia","articleCount":1,"articles":[{"id":"46556","title":"Hadj 2008 : enfin, tous les pèlerins sont là !","date":"2009-01-02","newspaper":"Notre Voie","country":"Côte d'Ivoire","type":"articles"}]},{"name":"Médine","lat":24.46861,"lng":39.61417,"country":"Saudi Arabia","articleCount":1,"articles":[{"id":"46556","title":"Hadj 2008 : enfin, tous les pèlerins sont là !","date":"2009-01-02","newspaper":"Notre Voie","country":"Côte d'Ivoire","type":"articles"}]},{"name":"La Mecque","lat":21.4225,"lng":39.826111,"country":"Saudi Arabia","articleCount":1,"articles":[{"id":"46556","title":"Hadj 2008 : enfin, tous les pèlerins sont là !","date":"2009-01-02","newspaper":"Notre Voie","country":"Côte d'Ivoire","type":"articles"}]},{"name":"Djeddah","lat":21.49012,"lng":39.18624,"country":"Saudi Arabia","articleCount":1,"articles":[{"id":"46556","title":"Hadj 2008 : enfin, tous les pèlerins sont là !","date":"2009-01-02","newspaper":"Notre Voie","country":"Côte d'Ivoire","type":"articles"}]},{"name":"Port-Bouët","lat":5.266667,"lng":-3.9,"country":"Côte d'Ivoire","articleCount":1,"articles":[{"id":"46556","title":"Hadj 2008 : enfin, tous les pèlerins sont là !","date":"2009-01-02","newspaper":"Notre Voie","country":"Côte d'Ivoire","type":"articles"}]},{"name":"Côte d'Ivoire","lat":8.0,"lng":-5.5,"country":"Côte d'Ivoire","articleCount":1,"articles":[{"id":"46556","title":"Hadj 2008 : enfin, tous les pèlerins sont là !","date":"2009-01-02","newspaper":"Notre Voie","country":"Côte d'Ivoire","type":"articles"}]},{"name":"Mosquée de la Riviéra Golf","lat":5.33757653748572,"lng":-3.9788409923568815,"country":"Côte d'Ivoire","articleCount":1,"articles":[{"id":"46556","title":"Hadj 2008 : enfin, tous les pèlerins sont là !","date":"2009-01-02","newspaper":"Notre Voie","country":"Côte d'Ivoire","type":"articles"}]}]}