{"id":1980,"name":"Mouftaou Sanni","type":"Personnes","stats":{"articleCount":3,"countries":["Benin","Mauritania","Saudi Arabia","Senegal","Togo","Tunisia"],"dateRange":{"first":"1972-11-14","last":"1973-08-14"}},"locations":[{"name":"Bénin","lat":9.5,"lng":2.25,"country":"Benin","articleCount":2,"articles":[{"id":"8580","title":"Vers l'union de la Communauté islamique du Dahomey","date":"1973-08-14","newspaper":"Daho-Express","country":"Benin","type":"articles"},{"id":"8581","title":"Une délégation de la Ligue Mondiale Islamique à Cotonou","date":"1973-06-19","newspaper":"Daho-Express","country":"Benin","type":"articles"}]},{"name":"La Mecque","lat":21.4225,"lng":39.826111,"country":"Saudi Arabia","articleCount":1,"articles":[{"id":"6790","title":"Création d'un comité révolutionnaire pour les pélérins à la Mecque","date":"1972-11-14","newspaper":"Daho-Express","country":"Benin","type":"articles"}]},{"name":"Porto-Novo","lat":6.49646,"lng":2.60359,"country":"Benin","articleCount":1,"articles":[{"id":"8580","title":"Vers l'union de la Communauté islamique du Dahomey","date":"1973-08-14","newspaper":"Daho-Express","country":"Benin","type":"articles"}]},{"name":"Arabie saoudite","lat":25.0,"lng":45.0,"country":"Saudi Arabia","articleCount":1,"articles":[{"id":"8581","title":"Une délégation de la Ligue Mondiale Islamique à Cotonou","date":"1973-06-19","newspaper":"Daho-Express","country":"Benin","type":"articles"}]},{"name":"Cotonou","lat":6.36536,"lng":2.41833,"country":"Benin","articleCount":1,"articles":[{"id":"8581","title":"Une délégation de la Ligue Mondiale Islamique à Cotonou","date":"1973-06-19","newspaper":"Daho-Express","country":"Benin","type":"articles"}]},{"name":"Lagos","lat":6.45,"lng":3.4,"country":"Benin","articleCount":1,"articles":[{"id":"8581","title":"Une délégation de la Ligue Mondiale Islamique à Cotonou","date":"1973-06-19","newspaper":"Daho-Express","country":"Benin","type":"articles"}]},{"name":"Lomé","lat":6.12874,"lng":1.22154,"country":"Togo","articleCount":1,"articles":[{"id":"8581","title":"Une délégation de la Ligue Mondiale Islamique à Cotonou","date":"1973-06-19","newspaper":"Daho-Express","country":"Benin","type":"articles"}]},{"name":"Mauritanie","lat":20.25,"lng":-10.5,"country":"Mauritania","articleCount":1,"articles":[{"id":"8581","title":"Une délégation de la Ligue Mondiale Islamique à Cotonou","date":"1973-06-19","newspaper":"Daho-Express","country":"Benin","type":"articles"}]},{"name":"Sénégal","lat":14.5,"lng":-14.25,"country":"Senegal","articleCount":1,"articles":[{"id":"8581","title":"Une délégation de la Ligue Mondiale Islamique à Cotonou","date":"1973-06-19","newspaper":"Daho-Express","country":"Benin","type":"articles"}]},{"name":"Tunisie","lat":34.0,"lng":9.0,"country":"Tunisia","articleCount":1,"articles":[{"id":"8581","title":"Une délégation de la Ligue Mondiale Islamique à Cotonou","date":"1973-06-19","newspaper":"Daho-Express","country":"Benin","type":"articles"}]}]}