{"id":1990,"name":"Waïdi Badirou","type":"Personnes","stats":{"articleCount":2,"countries":["Benin","Togo"],"dateRange":{"first":"1976-08-06","last":"2000-11-20"}},"locations":[{"name":"Porto-Novo","lat":6.49646,"lng":2.60359,"country":"Benin","articleCount":2,"articles":[{"id":"6824","title":"La communauté musulmane s'organise","date":"1976-08-06","newspaper":"Ehuzu","country":"Benin","type":"articles"},{"id":"7197","title":"Cérémonie d'inauguration de la Mosquée Centrale \"Imam Hadj Rahimi Mocktar\" de Gbokou Porto-Novo : rendre grace a Dieu en tout temps et en tout lieu","date":"2000-11-20","newspaper":"La Nation","country":"Benin","type":"articles"}]},{"name":"Natitingou","lat":10.30416,"lng":1.37962,"country":"Benin","articleCount":1,"articles":[{"id":"6824","title":"La communauté musulmane s'organise","date":"1976-08-06","newspaper":"Ehuzu","country":"Benin","type":"articles"}]},{"name":"Parakou","lat":9.33716,"lng":2.63031,"country":"Benin","articleCount":1,"articles":[{"id":"6824","title":"La communauté musulmane s'organise","date":"1976-08-06","newspaper":"Ehuzu","country":"Benin","type":"articles"}]},{"name":"Ouémé","lat":6.5,"lng":2.6,"country":"Benin","articleCount":1,"articles":[{"id":"6824","title":"La communauté musulmane s'organise","date":"1976-08-06","newspaper":"Ehuzu","country":"Benin","type":"articles"}]},{"name":"Bénin","lat":9.5,"lng":2.25,"country":"Benin","articleCount":1,"articles":[{"id":"6824","title":"La communauté musulmane s'organise","date":"1976-08-06","newspaper":"Ehuzu","country":"Benin","type":"articles"}]},{"name":"Kétou","lat":7.45,"lng":2.626,"country":"Benin","articleCount":1,"articles":[{"id":"6824","title":"La communauté musulmane s'organise","date":"1976-08-06","newspaper":"Ehuzu","country":"Benin","type":"articles"}]},{"name":"Borgou","lat":10.74821385974019,"lng":0.6196353130056622,"country":"Togo","articleCount":1,"articles":[{"id":"6824","title":"La communauté musulmane s'organise","date":"1976-08-06","newspaper":"Ehuzu","country":"Benin","type":"articles"}]},{"name":"Cotonou","lat":6.36536,"lng":2.41833,"country":"Benin","articleCount":1,"articles":[{"id":"7197","title":"Cérémonie d'inauguration de la Mosquée Centrale \"Imam Hadj Rahimi Mocktar\" de Gbokou Porto-Novo : rendre grace a Dieu en tout temps et en tout lieu","date":"2000-11-20","newspaper":"La Nation","country":"Benin","type":"articles"}]},{"name":"Mosquée Centrale \"Imam Hadj Rahimi Mocktar\" de Gbokou","lat":0,"lng":0,"country":"Unknown","articleCount":1,"articles":[{"id":"7197","title":"Cérémonie d'inauguration de la Mosquée Centrale \"Imam Hadj Rahimi Mocktar\" de Gbokou Porto-Novo : rendre grace a Dieu en tout temps et en tout lieu","date":"2000-11-20","newspaper":"La Nation","country":"Benin","type":"articles"}]}]}