{"id":2005,"name":"Alidou Yaya","type":"Personnes","stats":{"articleCount":3,"countries":["Benin","Saudi Arabia"],"dateRange":{"first":"1972-11-14","last":"1976-08-11"}},"locations":[{"name":"Porto-Novo","lat":6.49646,"lng":2.60359,"country":"Benin","articleCount":2,"articles":[{"id":"8580","title":"Vers l'union de la Communauté islamique du Dahomey","date":"1973-08-14","newspaper":"Daho-Express","country":"Benin","type":"articles"},{"id":"8638","title":"Mise sur pied des bureaux provinciaux de l'Atlantique et de l'Atacora de la Communauté musulmane","date":"1976-08-11","newspaper":"Ehuzu","country":"Benin","type":"articles"}]},{"name":"La Mecque","lat":21.4225,"lng":39.826111,"country":"Saudi Arabia","articleCount":1,"articles":[{"id":"6790","title":"Création d'un comité révolutionnaire pour les pélérins à la Mecque","date":"1972-11-14","newspaper":"Daho-Express","country":"Benin","type":"articles"}]},{"name":"Bénin","lat":9.5,"lng":2.25,"country":"Benin","articleCount":1,"articles":[{"id":"8580","title":"Vers l'union de la Communauté islamique du Dahomey","date":"1973-08-14","newspaper":"Daho-Express","country":"Benin","type":"articles"}]},{"name":"Cotonou","lat":6.36536,"lng":2.41833,"country":"Benin","articleCount":1,"articles":[{"id":"8638","title":"Mise sur pied des bureaux provinciaux de l'Atlantique et de l'Atacora de la Communauté musulmane","date":"1976-08-11","newspaper":"Ehuzu","country":"Benin","type":"articles"}]},{"name":"Natitingou","lat":10.30416,"lng":1.37962,"country":"Benin","articleCount":1,"articles":[{"id":"8638","title":"Mise sur pied des bureaux provinciaux de l'Atlantique et de l'Atacora de la Communauté musulmane","date":"1976-08-11","newspaper":"Ehuzu","country":"Benin","type":"articles"}]},{"name":"Parakou","lat":9.33716,"lng":2.63031,"country":"Benin","articleCount":1,"articles":[{"id":"8638","title":"Mise sur pied des bureaux provinciaux de l'Atlantique et de l'Atacora de la Communauté musulmane","date":"1976-08-11","newspaper":"Ehuzu","country":"Benin","type":"articles"}]},{"name":"Djougou","lat":9.70853,"lng":1.66598,"country":"Benin","articleCount":1,"articles":[{"id":"8638","title":"Mise sur pied des bureaux provinciaux de l'Atlantique et de l'Atacora de la Communauté musulmane","date":"1976-08-11","newspaper":"Ehuzu","country":"Benin","type":"articles"}]},{"name":"Atacora","lat":10.3,"lng":1.366667,"country":"Benin","articleCount":1,"articles":[{"id":"8638","title":"Mise sur pied des bureaux provinciaux de l'Atlantique et de l'Atacora de la Communauté musulmane","date":"1976-08-11","newspaper":"Ehuzu","country":"Benin","type":"articles"}]},{"name":"Kouandé","lat":10.42486,"lng":1.71466,"country":"Benin","articleCount":1,"articles":[{"id":"8638","title":"Mise sur pied des bureaux provinciaux de l'Atlantique et de l'Atacora de la Communauté musulmane","date":"1976-08-11","newspaper":"Ehuzu","country":"Benin","type":"articles"}]}]}