{"id":2116,"name":"Koffi Fiawumo-Dotsey","type":"Personnes","stats":{"articleCount":1,"countries":["Denmark","Saudi Arabia","Togo"],"dateRange":{"first":"1987-09-24","last":"1987-09-24"}},"locations":[{"name":"Lomé","lat":6.12874,"lng":1.22154,"country":"Togo","articleCount":1,"articles":[{"id":"25841","title":"1er anniversaire de la Journée de l'agression du 23 septembre : dans le recueillement et la prière","date":"1987-09-24","newspaper":"La Nouvelle Marche","country":"Togo","type":"articles"}]},{"name":"Palais des congrès de Lomé","lat":6.13059,"lng":1.21739,"country":"Togo","articleCount":1,"articles":[{"id":"25841","title":"1er anniversaire de la Journée de l'agression du 23 septembre : dans le recueillement et la prière","date":"1987-09-24","newspaper":"La Nouvelle Marche","country":"Togo","type":"articles"}]},{"name":"Togo","lat":8.66667,"lng":1.08333,"country":"Togo","articleCount":1,"articles":[{"id":"25841","title":"1er anniversaire de la Journée de l'agression du 23 septembre : dans le recueillement et la prière","date":"1987-09-24","newspaper":"La Nouvelle Marche","country":"Togo","type":"articles"}]},{"name":"Stade Général Gnassingbé Eyadéma","lat":0,"lng":0,"country":"Unknown","articleCount":1,"articles":[{"id":"25841","title":"1er anniversaire de la Journée de l'agression du 23 septembre : dans le recueillement et la prière","date":"1987-09-24","newspaper":"La Nouvelle Marche","country":"Togo","type":"articles"}]},{"name":"Danemark","lat":56.0,"lng":10.0,"country":"Denmark","articleCount":1,"articles":[{"id":"25841","title":"1er anniversaire de la Journée de l'agression du 23 septembre : dans le recueillement et la prière","date":"1987-09-24","newspaper":"La Nouvelle Marche","country":"Togo","type":"articles"}]},{"name":"Arabie saoudite","lat":25.0,"lng":45.0,"country":"Saudi Arabia","articleCount":1,"articles":[{"id":"25841","title":"1er anniversaire de la Journée de l'agression du 23 septembre : dans le recueillement et la prière","date":"1987-09-24","newspaper":"La Nouvelle Marche","country":"Togo","type":"articles"}]},{"name":"Kloto","lat":7.083333,"lng":0.75,"country":"Togo","articleCount":1,"articles":[{"id":"25841","title":"1er anniversaire de la Journée de l'agression du 23 septembre : dans le recueillement et la prière","date":"1987-09-24","newspaper":"La Nouvelle Marche","country":"Togo","type":"articles"}]},{"name":"Haho","lat":6.95,"lng":1.16666667,"country":"Togo","articleCount":1,"articles":[{"id":"25841","title":"1er anniversaire de la Journée de l'agression du 23 septembre : dans le recueillement et la prière","date":"1987-09-24","newspaper":"La Nouvelle Marche","country":"Togo","type":"articles"}]},{"name":"Kpendjal","lat":10.8475,"lng":0.81666666666667,"country":"Togo","articleCount":1,"articles":[{"id":"25841","title":"1er anniversaire de la Journée de l'agression du 23 septembre : dans le recueillement et la prière","date":"1987-09-24","newspaper":"La Nouvelle Marche","country":"Togo","type":"articles"}]}]}