{"id":2141,"name":"Ousmane Agbérè","type":"Personnes","stats":{"articleCount":3,"countries":["Saudi Arabia","Togo"],"dateRange":{"first":"1980-09-01","last":"1991-07-02"}},"locations":[{"name":"Togo","lat":8.66667,"lng":1.08333,"country":"Togo","articleCount":2,"articles":[{"id":"25879","title":"Amou : une délégation du Conseil suprême musulman du Togo à Amlamé","date":"1989-04-20","newspaper":"La Nouvelle Marche","country":"Togo","type":"articles"},{"id":"25949","title":"Des pèlerins togolais ont regagné Lomé hier","date":"1991-07-02","newspaper":"La Nouvelle Marche","country":"Togo","type":"articles"}]},{"name":"La Mecque","lat":21.4225,"lng":39.826111,"country":"Saudi Arabia","articleCount":2,"articles":[{"id":"25879","title":"Amou : une délégation du Conseil suprême musulman du Togo à Amlamé","date":"1989-04-20","newspaper":"La Nouvelle Marche","country":"Togo","type":"articles"},{"id":"25949","title":"Des pèlerins togolais ont regagné Lomé hier","date":"1991-07-02","newspaper":"La Nouvelle Marche","country":"Togo","type":"articles"}]},{"name":"Lomé","lat":6.12874,"lng":1.22154,"country":"Togo","articleCount":1,"articles":[{"id":"25669","title":"Pèlerinage à la Mecque et aux lieux saints de l'Islam","date":"1980-09-01","newspaper":"La Nouvelle Marche","country":"Togo","type":"articles"}]},{"name":"Tchamba","lat":9.0333333333333,"lng":1.4166666666667,"country":"Togo","articleCount":1,"articles":[{"id":"25669","title":"Pèlerinage à la Mecque et aux lieux saints de l'Islam","date":"1980-09-01","newspaper":"La Nouvelle Marche","country":"Togo","type":"articles"}]},{"name":"Djeddah","lat":21.49012,"lng":39.18624,"country":"Saudi Arabia","articleCount":1,"articles":[{"id":"25669","title":"Pèlerinage à la Mecque et aux lieux saints de l'Islam","date":"1980-09-01","newspaper":"La Nouvelle Marche","country":"Togo","type":"articles"}]},{"name":"Amlamé","lat":7.4605555555556,"lng":0.90305555555556,"country":"Togo","articleCount":1,"articles":[{"id":"25879","title":"Amou : une délégation du Conseil suprême musulman du Togo à Amlamé","date":"1989-04-20","newspaper":"La Nouvelle Marche","country":"Togo","type":"articles"}]},{"name":"Amou","lat":7.5,"lng":1.05,"country":"Togo","articleCount":1,"articles":[{"id":"25879","title":"Amou : une délégation du Conseil suprême musulman du Togo à Amlamé","date":"1989-04-20","newspaper":"La Nouvelle Marche","country":"Togo","type":"articles"}]},{"name":"Arabie saoudite","lat":25.0,"lng":45.0,"country":"Saudi Arabia","articleCount":1,"articles":[{"id":"25949","title":"Des pèlerins togolais ont regagné Lomé hier","date":"1991-07-02","newspaper":"La Nouvelle Marche","country":"Togo","type":"articles"}]}]}