{"id":2145,"name":"Mamah Issaka","type":"Personnes","stats":{"articleCount":1,"countries":["Togo"],"dateRange":{"first":"1991-04-17","last":"1991-04-17"}},"locations":[{"name":"Amlamé","lat":7.4605555555556,"lng":0.90305555555556,"country":"Togo","articleCount":1,"articles":[{"id":"25946","title":"La célébration du Ramadan dans nos localités","date":"1991-04-17","newspaper":"La Nouvelle Marche","country":"Togo","type":"articles"}]},{"name":"Atakpamé","lat":7.5269444444444,"lng":1.1266666666667,"country":"Togo","articleCount":1,"articles":[{"id":"25946","title":"La célébration du Ramadan dans nos localités","date":"1991-04-17","newspaper":"La Nouvelle Marche","country":"Togo","type":"articles"}]},{"name":"Bassar","lat":9.25,"lng":0.78333333333333,"country":"Togo","articleCount":1,"articles":[{"id":"25946","title":"La célébration du Ramadan dans nos localités","date":"1991-04-17","newspaper":"La Nouvelle Marche","country":"Togo","type":"articles"}]},{"name":"Kloto","lat":7.083333,"lng":0.75,"country":"Togo","articleCount":1,"articles":[{"id":"25946","title":"La célébration du Ramadan dans nos localités","date":"1991-04-17","newspaper":"La Nouvelle Marche","country":"Togo","type":"articles"}]},{"name":"Ogou","lat":7.516667,"lng":1.116667,"country":"Togo","articleCount":1,"articles":[{"id":"25946","title":"La célébration du Ramadan dans nos localités","date":"1991-04-17","newspaper":"La Nouvelle Marche","country":"Togo","type":"articles"}]},{"name":"Togo","lat":8.66667,"lng":1.08333,"country":"Togo","articleCount":1,"articles":[{"id":"25946","title":"La célébration du Ramadan dans nos localités","date":"1991-04-17","newspaper":"La Nouvelle Marche","country":"Togo","type":"articles"}]},{"name":"Kpalimé","lat":6.91,"lng":0.62805555555556,"country":"Togo","articleCount":1,"articles":[{"id":"25946","title":"La célébration du Ramadan dans nos localités","date":"1991-04-17","newspaper":"La Nouvelle Marche","country":"Togo","type":"articles"}]},{"name":"Amou","lat":7.5,"lng":1.05,"country":"Togo","articleCount":1,"articles":[{"id":"25946","title":"La célébration du Ramadan dans nos localités","date":"1991-04-17","newspaper":"La Nouvelle Marche","country":"Togo","type":"articles"}]}]}