{"id":23490,"name":"Adama Diabaté","type":"Personnes","stats":{"articleCount":5,"countries":["Côte d'Ivoire","Saudi Arabia"],"dateRange":{"first":"1995-10-04","last":"2019-06-05"}},"locations":[{"name":"Yopougon","lat":5.316667,"lng":-4.066667,"country":"Côte d'Ivoire","articleCount":5,"articles":[{"id":"61424","title":"Séminaire de recyclage des imams : maîtriser les règles consignées dans le Coran","date":"1995-10-04","newspaper":"La Voie","country":"Côte d'Ivoire","type":"articles"},{"id":"64834","title":"Tabaski : prière pour la fraternité et la paix","date":"1996-04-30","newspaper":"Fraternité Matin","country":"Côte d'Ivoire","type":"articles"},{"id":"74313","title":"Cheick Aboubacar Fofana, président du Conseil supérieur des imams (Cosim) : \"Les lieux de culte sont devenus des tribunes politiques\"","date":"2011-08-16","newspaper":"Le Jour Plus","country":"Côte d'Ivoire","type":"articles"},{"id":"74740","title":"Célébration officielle de la Nuit du Destin : le Président de la République salue l'entente entre les religions","date":"2019-06-05","newspaper":"Le Patriote","country":"Côte d'Ivoire","type":"articles"},{"id":"76581","title":"Violences communautaires en Côte d’Ivoire : les imams appellent à « l’apaisement et à la raison »","date":"2019-06-01","newspaper":"APA News","country":"Côte d'Ivoire","type":"articles"}]},{"name":"Côte d'Ivoire","lat":8.0,"lng":-5.5,"country":"Côte d'Ivoire","articleCount":4,"articles":[{"id":"61424","title":"Séminaire de recyclage des imams : maîtriser les règles consignées dans le Coran","date":"1995-10-04","newspaper":"La Voie","country":"Côte d'Ivoire","type":"articles"},{"id":"64834","title":"Tabaski : prière pour la fraternité et la paix","date":"1996-04-30","newspaper":"Fraternité Matin","country":"Côte d'Ivoire","type":"articles"},{"id":"74313","title":"Cheick Aboubacar Fofana, président du Conseil supérieur des imams (Cosim) : \"Les lieux de culte sont devenus des tribunes politiques\"","date":"2011-08-16","newspaper":"Le Jour Plus","country":"Côte d'Ivoire","type":"articles"},{"id":"74740","title":"Célébration officielle de la Nuit du Destin : le Président de la République salue l'entente entre les religions","date":"2019-06-05","newspaper":"Le Patriote","country":"Côte d'Ivoire","type":"articles"}]},{"name":"Mosquée de la Riviéra Golf","lat":5.33757653748572,"lng":-3.9788409923568815,"country":"Côte d'Ivoire","articleCount":2,"articles":[{"id":"64834","title":"Tabaski : prière pour la fraternité et la paix","date":"1996-04-30","newspaper":"Fraternité Matin","country":"Côte d'Ivoire","type":"articles"},{"id":"74740","title":"Célébration officielle de la Nuit du Destin : le Président de la République salue l'entente entre les religions","date":"2019-06-05","newspaper":"Le Patriote","country":"Côte d'Ivoire","type":"articles"}]},{"name":"Bingerville","lat":5.35,"lng":-3.9,"country":"Côte d'Ivoire","articleCount":1,"articles":[{"id":"61424","title":"Séminaire de recyclage des imams : maîtriser les règles consignées dans le Coran","date":"1995-10-04","newspaper":"La Voie","country":"Côte d'Ivoire","type":"articles"}]},{"name":"Abidjan","lat":5.35444,"lng":-4.00167,"country":"Côte d'Ivoire","articleCount":1,"articles":[{"id":"61424","title":"Séminaire de recyclage des imams : maîtriser les règles consignées dans le Coran","date":"1995-10-04","newspaper":"La Voie","country":"Côte d'Ivoire","type":"articles"}]},{"name":"Treichville","lat":5.3,"lng":-4.0,"country":"Côte d'Ivoire","articleCount":1,"articles":[{"id":"64834","title":"Tabaski : prière pour la fraternité et la paix","date":"1996-04-30","newspaper":"Fraternité Matin","country":"Côte d'Ivoire","type":"articles"}]},{"name":"Port-Bouët","lat":5.266667,"lng":-3.9,"country":"Côte d'Ivoire","articleCount":1,"articles":[{"id":"64834","title":"Tabaski : prière pour la fraternité et la paix","date":"1996-04-30","newspaper":"Fraternité Matin","country":"Côte d'Ivoire","type":"articles"}]},{"name":"Adjamé","lat":5.3648,"lng":-4.02366,"country":"Côte d'Ivoire","articleCount":1,"articles":[{"id":"64834","title":"Tabaski : prière pour la fraternité et la paix","date":"1996-04-30","newspaper":"Fraternité Matin","country":"Côte d'Ivoire","type":"articles"}]},{"name":"Abidjan-Plateau","lat":5.32549,"lng":-4.02014,"country":"Côte d'Ivoire","articleCount":1,"articles":[{"id":"64834","title":"Tabaski : prière pour la fraternité et la paix","date":"1996-04-30","newspaper":"Fraternité Matin","country":"Côte d'Ivoire","type":"articles"}]},{"name":"Anyama","lat":5.4944444444444,"lng":-4.0516666666667,"country":"Côte d'Ivoire","articleCount":1,"articles":[{"id":"64834","title":"Tabaski : prière pour la fraternité et la paix","date":"1996-04-30","newspaper":"Fraternité Matin","country":"Côte d'Ivoire","type":"articles"}]},{"name":"Aghien","lat":5.388123,"lng":-3.999984,"country":"Côte d'Ivoire","articleCount":1,"articles":[{"id":"64834","title":"Tabaski : prière pour la fraternité et la paix","date":"1996-04-30","newspaper":"Fraternité Matin","country":"Côte d'Ivoire","type":"articles"}]},{"name":"La Mecque","lat":21.4225,"lng":39.826111,"country":"Saudi Arabia","articleCount":1,"articles":[{"id":"64834","title":"Tabaski : prière pour la fraternité et la paix","date":"1996-04-30","newspaper":"Fraternité Matin","country":"Côte d'Ivoire","type":"articles"}]},{"name":"Kaaba","lat":21.4225,"lng":39.826167,"country":"Saudi Arabia","articleCount":1,"articles":[{"id":"64834","title":"Tabaski : prière pour la fraternité et la paix","date":"1996-04-30","newspaper":"Fraternité Matin","country":"Côte d'Ivoire","type":"articles"}]},{"name":"Grande mosquée des II-Plateaux Aghien","lat":5.382535557731071,"lng":-3.993870062858185,"country":"Côte d'Ivoire","articleCount":1,"articles":[{"id":"64834","title":"Tabaski : prière pour la fraternité et la paix","date":"1996-04-30","newspaper":"Fraternité Matin","country":"Côte d'Ivoire","type":"articles"}]},{"name":"Mosquée Salam du Plateau","lat":5.319408854484132,"lng":-4.015756299712146,"country":"Côte d'Ivoire","articleCount":1,"articles":[{"id":"64834","title":"Tabaski : prière pour la fraternité et la paix","date":"1996-04-30","newspaper":"Fraternité Matin","country":"Côte d'Ivoire","type":"articles"}]},{"name":"Cocody","lat":5.35,"lng":-3.9666666666667,"country":"Côte d'Ivoire","articleCount":1,"articles":[{"id":"74740","title":"Célébration officielle de la Nuit du Destin : le Président de la République salue l'entente entre les religions","date":"2019-06-05","newspaper":"Le Patriote","country":"Côte d'Ivoire","type":"articles"}]},{"name":"Mosquée An Nour Riviera 2","lat":5.351224783601886,"lng":-3.980895863811308,"country":"Côte d'Ivoire","articleCount":1,"articles":[{"id":"74740","title":"Célébration officielle de la Nuit du Destin : le Président de la République salue l'entente entre les religions","date":"2019-06-05","newspaper":"Le Patriote","country":"Côte d'Ivoire","type":"articles"}]}]}