{"id":23571,"name":"Abdoul Kader Cissé","type":"Personnes","stats":{"articleCount":2,"countries":["Côte d'Ivoire"],"dateRange":{"first":"2013-09-26","last":"2016-02-15"}},"locations":[{"name":"Abobo","lat":5.418889,"lng":-4.020556,"country":"Côte d'Ivoire","articleCount":1,"articles":[{"id":"46668","title":"Finale de l'émission \"Jeunesse en Action\" : sous-comité universitaire de Cocody vainqueur","date":"2013-09-26","newspaper":"Notre Voie","country":"Côte d'Ivoire","type":"articles"}]},{"name":"Cocody","lat":5.35,"lng":-3.9666666666667,"country":"Côte d'Ivoire","articleCount":1,"articles":[{"id":"46668","title":"Finale de l'émission \"Jeunesse en Action\" : sous-comité universitaire de Cocody vainqueur","date":"2013-09-26","newspaper":"Notre Voie","country":"Côte d'Ivoire","type":"articles"}]},{"name":"Mosquée de la Riviéra Golf","lat":5.33757653748572,"lng":-3.9788409923568815,"country":"Côte d'Ivoire","articleCount":1,"articles":[{"id":"46668","title":"Finale de l'émission \"Jeunesse en Action\" : sous-comité universitaire de Cocody vainqueur","date":"2013-09-26","newspaper":"Notre Voie","country":"Côte d'Ivoire","type":"articles"}]},{"name":"Côte d'Ivoire","lat":8.0,"lng":-5.5,"country":"Côte d'Ivoire","articleCount":1,"articles":[{"id":"46668","title":"Finale de l'émission \"Jeunesse en Action\" : sous-comité universitaire de Cocody vainqueur","date":"2013-09-26","newspaper":"Notre Voie","country":"Côte d'Ivoire","type":"articles"}]},{"name":"Abidjan","lat":5.35444,"lng":-4.00167,"country":"Côte d'Ivoire","articleCount":1,"articles":[{"id":"76657","title":"Mise en place d’un Fonds structurel pour renforcer les capacités de l’AEEMCI","date":"2016-02-15","newspaper":"APA News","country":"Côte d'Ivoire","type":"articles"}]},{"name":"Treichville","lat":5.3,"lng":-4.0,"country":"Côte d'Ivoire","articleCount":1,"articles":[{"id":"76657","title":"Mise en place d’un Fonds structurel pour renforcer les capacités de l’AEEMCI","date":"2016-02-15","newspaper":"APA News","country":"Côte d'Ivoire","type":"articles"}]},{"name":"Palais des Sports de Treichville","lat":5.298056,"lng":-4.005278,"country":"Côte d'Ivoire","articleCount":1,"articles":[{"id":"76657","title":"Mise en place d’un Fonds structurel pour renforcer les capacités de l’AEEMCI","date":"2016-02-15","newspaper":"APA News","country":"Côte d'Ivoire","type":"articles"}]}]}