{"id":23673,"name":"Souleymane Doumbia","type":"Personnes","stats":{"articleCount":13,"countries":["Algeria","Burkina Faso","Côte d'Ivoire","Lebanon","Mali","Saudi Arabia","Senegal","Togo","United States of America"],"dateRange":{"first":"1977-10-14","last":"2013-09-05"}},"locations":[{"name":"Côte d'Ivoire","lat":8.0,"lng":-5.5,"country":"Côte d'Ivoire","articleCount":8,"articles":[{"id":"48667","title":"Cérémonie d'investiture du Président du Conseil communal (COSIM) de Cocody. L'Imam Idriss Koudouss (président du CNI) : \"Jamais les musulmans n'ont subi autant d'atrocités que sous ce régime\"","date":"2001-05-29","newspaper":"Le Patriote","country":"Côte d'Ivoire","type":"articles"},{"id":"63778","title":"Bouaké. Conférence-débat sur la religion : l'islam face au modernisme animée par M. Bakary Fofana","date":"1978-04-08","newspaper":"Fraternité Matin","country":"Côte d'Ivoire","type":"articles"},{"id":"64840","title":"Premier congrès ordinaire du Conseil national islamique : devoir de solidarité et de tolérance","date":"1996-03-11","newspaper":"Fraternité Matin","country":"Côte d'Ivoire","type":"articles"},{"id":"67843","title":"L'Association musulmane pour l'organisation du pèlerinage à la Mecque : tournée d'une délégation à l'intérieur du pays","date":"1981-04-11","newspaper":"Fraternité Matin","country":"Côte d'Ivoire","type":"articles"},{"id":"67918","title":"Ramadan. Nuit du destin ou \"Kroubissou\": tous les musulmans veilleront dans les mosquées","date":"1979-08-20","newspaper":"Fraternité Matin","country":"Côte d'Ivoire","type":"articles"},{"id":"68394","title":"Jeunesse religieuse : assemblée générale des jeunes musulmans de Bingerville","date":"1977-10-26","newspaper":"Fraternité Matin","country":"Côte d'Ivoire","type":"articles"},{"id":"73915","title":"Abobo-PK18 Résidentiel / Cohésion sociale : la population s'engage dans la paix et la réconciliation","date":"2013-09-05","newspaper":"Le Jour Plus","country":"Côte d'Ivoire","type":"articles"},{"id":"74066","title":"Abobo Maoulid 2010 : Toungara prie avec ses administrés","date":"2010-03-01","newspaper":"Le Jour Plus","country":"Côte d'Ivoire","type":"articles"}]},{"name":"Williamsville","lat":5.372656157414483,"lng":-4.0202704387950305,"country":"Côte d'Ivoire","articleCount":5,"articles":[{"id":"62371","title":"Sacrifices du 7ème jour de Souleymane Doumbia : le Chef de l'État représenté par une délégration conduite par le ministre de la Communication","date":"1990-04-18","newspaper":"Fraternité Matin","country":"Côte d'Ivoire","type":"articles"},{"id":"63786","title":"La jeune fille musulmane face à la vie moderne : \"Obéissance, pudeur, respect\" déclare El Hadj Souleymane Doumbia au cours d'un dîner-débat","date":"1978-12-22","newspaper":"Fraternité Matin","country":"Côte d'Ivoire","type":"articles"},{"id":"63792","title":"La jeune fille musulmane face à la vie moderne. Souleymane Doumbia à G.Y. Obin : \"Je n'ai pas placé l'islam sur le plan tribal\"","date":"1979-01-19","newspaper":"Fraternité Matin","country":"Côte d'Ivoire","type":"articles"},{"id":"67918","title":"Ramadan. Nuit du destin ou \"Kroubissou\": tous les musulmans veilleront dans les mosquées","date":"1979-08-20","newspaper":"Fraternité Matin","country":"Côte d'Ivoire","type":"articles"},{"id":"67954","title":"Islam. Ce soir à la TV : second volet des six éléments de la foi","date":"1977-10-14","newspaper":"Fraternité Matin","country":"Côte d'Ivoire","type":"articles"}]},{"name":"Abidjan","lat":5.35444,"lng":-4.00167,"country":"Côte d'Ivoire","articleCount":3,"articles":[{"id":"48667","title":"Cérémonie d'investiture du Président du Conseil communal (COSIM) de Cocody. L'Imam Idriss Koudouss (président du CNI) : \"Jamais les musulmans n'ont subi autant d'atrocités que sous ce régime\"","date":"2001-05-29","newspaper":"Le Patriote","country":"Côte d'Ivoire","type":"articles"},{"id":"64840","title":"Premier congrès ordinaire du Conseil national islamique : devoir de solidarité et de tolérance","date":"1996-03-11","newspaper":"Fraternité Matin","country":"Côte d'Ivoire","type":"articles"},{"id":"67880","title":"Réunion de l'Association des musulmans d'Oumé (AMO) (annonce)","date":"1979-09-01","newspaper":"Fraternité Matin","country":"Côte d'Ivoire","type":"articles"}]},{"name":"Mosquée de la Riviéra Golf","lat":5.33757653748572,"lng":-3.9788409923568815,"country":"Côte d'Ivoire","articleCount":2,"articles":[{"id":"48667","title":"Cérémonie d'investiture du Président du Conseil communal (COSIM) de Cocody. L'Imam Idriss Koudouss (président du CNI) : \"Jamais les musulmans n'ont subi autant d'atrocités que sous ce régime\"","date":"2001-05-29","newspaper":"Le Patriote","country":"Côte d'Ivoire","type":"articles"},{"id":"64840","title":"Premier congrès ordinaire du Conseil national islamique : devoir de solidarité et de tolérance","date":"1996-03-11","newspaper":"Fraternité Matin","country":"Côte d'Ivoire","type":"articles"}]},{"name":"Divo","lat":5.837222,"lng":-5.357222,"country":"Côte d'Ivoire","articleCount":2,"articles":[{"id":"48667","title":"Cérémonie d'investiture du Président du Conseil communal (COSIM) de Cocody. L'Imam Idriss Koudouss (président du CNI) : \"Jamais les musulmans n'ont subi autant d'atrocités que sous ce régime\"","date":"2001-05-29","newspaper":"Le Patriote","country":"Côte d'Ivoire","type":"articles"},{"id":"67843","title":"L'Association musulmane pour l'organisation du pèlerinage à la Mecque : tournée d'une délégation à l'intérieur du pays","date":"1981-04-11","newspaper":"Fraternité Matin","country":"Côte d'Ivoire","type":"articles"}]},{"name":"Adjamé","lat":5.3648,"lng":-4.02366,"country":"Côte d'Ivoire","articleCount":2,"articles":[{"id":"62371","title":"Sacrifices du 7ème jour de Souleymane Doumbia : le Chef de l'État représenté par une délégration conduite par le ministre de la Communication","date":"1990-04-18","newspaper":"Fraternité Matin","country":"Côte d'Ivoire","type":"articles"},{"id":"67918","title":"Ramadan. Nuit du destin ou \"Kroubissou\": tous les musulmans veilleront dans les mosquées","date":"1979-08-20","newspaper":"Fraternité Matin","country":"Côte d'Ivoire","type":"articles"}]},{"name":"Bouaké","lat":7.68333,"lng":-5.03306,"country":"Côte d'Ivoire","articleCount":2,"articles":[{"id":"63778","title":"Bouaké. Conférence-débat sur la religion : l'islam face au modernisme animée par M. Bakary Fofana","date":"1978-04-08","newspaper":"Fraternité Matin","country":"Côte d'Ivoire","type":"articles"},{"id":"67843","title":"L'Association musulmane pour l'organisation du pèlerinage à la Mecque : tournée d'une délégation à l'intérieur du pays","date":"1981-04-11","newspaper":"Fraternité Matin","country":"Côte d'Ivoire","type":"articles"}]},{"name":"Bingerville","lat":5.35,"lng":-3.9,"country":"Côte d'Ivoire","articleCount":2,"articles":[{"id":"64840","title":"Premier congrès ordinaire du Conseil national islamique : devoir de solidarité et de tolérance","date":"1996-03-11","newspaper":"Fraternité Matin","country":"Côte d'Ivoire","type":"articles"},{"id":"68394","title":"Jeunesse religieuse : assemblée générale des jeunes musulmans de Bingerville","date":"1977-10-26","newspaper":"Fraternité Matin","country":"Côte d'Ivoire","type":"articles"}]},{"name":"La Mecque","lat":21.4225,"lng":39.826111,"country":"Saudi Arabia","articleCount":2,"articles":[{"id":"64840","title":"Premier congrès ordinaire du Conseil national islamique : devoir de solidarité et de tolérance","date":"1996-03-11","newspaper":"Fraternité Matin","country":"Côte d'Ivoire","type":"articles"},{"id":"67843","title":"L'Association musulmane pour l'organisation du pèlerinage à la Mecque : tournée d'une délégation à l'intérieur du pays","date":"1981-04-11","newspaper":"Fraternité Matin","country":"Côte d'Ivoire","type":"articles"}]},{"name":"Oumé","lat":6.3833333333333,"lng":-5.4166666666667,"country":"Côte d'Ivoire","articleCount":2,"articles":[{"id":"67843","title":"L'Association musulmane pour l'organisation du pèlerinage à la Mecque : tournée d'une délégation à l'intérieur du pays","date":"1981-04-11","newspaper":"Fraternité Matin","country":"Côte d'Ivoire","type":"articles"},{"id":"67880","title":"Réunion de l'Association des musulmans d'Oumé (AMO) (annonce)","date":"1979-09-01","newspaper":"Fraternité Matin","country":"Côte d'Ivoire","type":"articles"}]},{"name":"Bouna","lat":9.26666667,"lng":-3.0,"country":"Côte d'Ivoire","articleCount":2,"articles":[{"id":"67843","title":"L'Association musulmane pour l'organisation du pèlerinage à la Mecque : tournée d'une délégation à l'intérieur du pays","date":"1981-04-11","newspaper":"Fraternité Matin","country":"Côte d'Ivoire","type":"articles"},{"id":"73915","title":"Abobo-PK18 Résidentiel / Cohésion sociale : la population s'engage dans la paix et la réconciliation","date":"2013-09-05","newspaper":"Le Jour Plus","country":"Côte d'Ivoire","type":"articles"}]},{"name":"Cocody","lat":5.35,"lng":-3.9666666666667,"country":"Côte d'Ivoire","articleCount":1,"articles":[{"id":"48667","title":"Cérémonie d'investiture du Président du Conseil communal (COSIM) de Cocody. L'Imam Idriss Koudouss (président du CNI) : \"Jamais les musulmans n'ont subi autant d'atrocités que sous ce régime\"","date":"2001-05-29","newspaper":"Le Patriote","country":"Côte d'Ivoire","type":"articles"}]},{"name":"Yopougon","lat":5.316667,"lng":-4.066667,"country":"Côte d'Ivoire","articleCount":1,"articles":[{"id":"48667","title":"Cérémonie d'investiture du Président du Conseil communal (COSIM) de Cocody. L'Imam Idriss Koudouss (président du CNI) : \"Jamais les musulmans n'ont subi autant d'atrocités que sous ce régime\"","date":"2001-05-29","newspaper":"Le Patriote","country":"Côte d'Ivoire","type":"articles"}]},{"name":"Grande mosquée des II-Plateaux Aghien","lat":5.382535557731071,"lng":-3.993870062858185,"country":"Côte d'Ivoire","articleCount":1,"articles":[{"id":"48667","title":"Cérémonie d'investiture du Président du Conseil communal (COSIM) de Cocody. L'Imam Idriss Koudouss (président du CNI) : \"Jamais les musulmans n'ont subi autant d'atrocités que sous ce régime\"","date":"2001-05-29","newspaper":"Le Patriote","country":"Côte d'Ivoire","type":"articles"}]},{"name":"Grande Mosquée d'Adjamé","lat":5.353286615241792,"lng":-4.026326534959187,"country":"Côte d'Ivoire","articleCount":1,"articles":[{"id":"62371","title":"Sacrifices du 7ème jour de Souleymane Doumbia : le Chef de l'État représenté par une délégration conduite par le ministre de la Communication","date":"1990-04-18","newspaper":"Fraternité Matin","country":"Côte d'Ivoire","type":"articles"}]},{"name":"Centre Culturel Islamique de Lomé II","lat":0,"lng":0,"country":"Unknown","articleCount":1,"articles":[{"id":"63786","title":"La jeune fille musulmane face à la vie moderne : \"Obéissance, pudeur, respect\" déclare El Hadj Souleymane Doumbia au cours d'un dîner-débat","date":"1978-12-22","newspaper":"Fraternité Matin","country":"Côte d'Ivoire","type":"articles"}]},{"name":"Algérie","lat":28.0,"lng":3.0,"country":"Algeria","articleCount":1,"articles":[{"id":"63786","title":"La jeune fille musulmane face à la vie moderne : \"Obéissance, pudeur, respect\" déclare El Hadj Souleymane Doumbia au cours d'un dîner-débat","date":"1978-12-22","newspaper":"Fraternité Matin","country":"Côte d'Ivoire","type":"articles"}]},{"name":"États-Unis","lat":39.76,"lng":-98.5,"country":"United States of America","articleCount":1,"articles":[{"id":"63786","title":"La jeune fille musulmane face à la vie moderne : \"Obéissance, pudeur, respect\" déclare El Hadj Souleymane Doumbia au cours d'un dîner-débat","date":"1978-12-22","newspaper":"Fraternité Matin","country":"Côte d'Ivoire","type":"articles"}]},{"name":"Hôtel Ivoire","lat":5.3269,"lng":-4.00547,"country":"Côte d'Ivoire","articleCount":1,"articles":[{"id":"64840","title":"Premier congrès ordinaire du Conseil national islamique : devoir de solidarité et de tolérance","date":"1996-03-11","newspaper":"Fraternité Matin","country":"Côte d'Ivoire","type":"articles"}]},{"name":"Abidjan-Plateau","lat":5.32549,"lng":-4.02014,"country":"Côte d'Ivoire","articleCount":1,"articles":[{"id":"64840","title":"Premier congrès ordinaire du Conseil national islamique : devoir de solidarité et de tolérance","date":"1996-03-11","newspaper":"Fraternité Matin","country":"Côte d'Ivoire","type":"articles"}]},{"name":"Liban","lat":33.83333,"lng":35.83333,"country":"Lebanon","articleCount":1,"articles":[{"id":"64840","title":"Premier congrès ordinaire du Conseil national islamique : devoir de solidarité et de tolérance","date":"1996-03-11","newspaper":"Fraternité Matin","country":"Côte d'Ivoire","type":"articles"}]},{"name":"Burkina Faso","lat":12.5,"lng":-1.66667,"country":"Burkina Faso","articleCount":1,"articles":[{"id":"64840","title":"Premier congrès ordinaire du Conseil national islamique : devoir de solidarité et de tolérance","date":"1996-03-11","newspaper":"Fraternité Matin","country":"Côte d'Ivoire","type":"articles"}]},{"name":"Sénégal","lat":14.5,"lng":-14.25,"country":"Senegal","articleCount":1,"articles":[{"id":"64840","title":"Premier congrès ordinaire du Conseil national islamique : devoir de solidarité et de tolérance","date":"1996-03-11","newspaper":"Fraternité Matin","country":"Côte d'Ivoire","type":"articles"}]},{"name":"Togo","lat":8.66667,"lng":1.08333,"country":"Togo","articleCount":1,"articles":[{"id":"64840","title":"Premier congrès ordinaire du Conseil national islamique : devoir de solidarité et de tolérance","date":"1996-03-11","newspaper":"Fraternité Matin","country":"Côte d'Ivoire","type":"articles"}]},{"name":"Mali","lat":18.0,"lng":-2.0,"country":"Mali","articleCount":1,"articles":[{"id":"64840","title":"Premier congrès ordinaire du Conseil national islamique : devoir de solidarité et de tolérance","date":"1996-03-11","newspaper":"Fraternité Matin","country":"Côte d'Ivoire","type":"articles"}]},{"name":"Mosquée Salam du Plateau","lat":5.319408854484132,"lng":-4.015756299712146,"country":"Côte d'Ivoire","articleCount":1,"articles":[{"id":"64840","title":"Premier congrès ordinaire du Conseil national islamique : devoir de solidarité et de tolérance","date":"1996-03-11","newspaper":"Fraternité Matin","country":"Côte d'Ivoire","type":"articles"}]},{"name":"Arabie saoudite","lat":25.0,"lng":45.0,"country":"Saudi Arabia","articleCount":1,"articles":[{"id":"67843","title":"L'Association musulmane pour l'organisation du pèlerinage à la Mecque : tournée d'une délégation à l'intérieur du pays","date":"1981-04-11","newspaper":"Fraternité Matin","country":"Côte d'Ivoire","type":"articles"}]},{"name":"Abengourou","lat":6.729722,"lng":-3.496389,"country":"Côte d'Ivoire","articleCount":1,"articles":[{"id":"67843","title":"L'Association musulmane pour l'organisation du pèlerinage à la Mecque : tournée d'une délégation à l'intérieur du pays","date":"1981-04-11","newspaper":"Fraternité Matin","country":"Côte d'Ivoire","type":"articles"}]},{"name":"Bondoukou","lat":8.04,"lng":-2.8,"country":"Côte d'Ivoire","articleCount":1,"articles":[{"id":"67843","title":"L'Association musulmane pour l'organisation du pèlerinage à la Mecque : tournée d'une délégation à l'intérieur du pays","date":"1981-04-11","newspaper":"Fraternité Matin","country":"Côte d'Ivoire","type":"articles"}]},{"name":"Korhogo","lat":9.457778,"lng":-5.629444,"country":"Côte d'Ivoire","articleCount":1,"articles":[{"id":"67843","title":"L'Association musulmane pour l'organisation du pèlerinage à la Mecque : tournée d'une délégation à l'intérieur du pays","date":"1981-04-11","newspaper":"Fraternité Matin","country":"Côte d'Ivoire","type":"articles"}]},{"name":"Odienné","lat":9.5,"lng":-7.566667,"country":"Côte d'Ivoire","articleCount":1,"articles":[{"id":"67843","title":"L'Association musulmane pour l'organisation du pèlerinage à la Mecque : tournée d'une délégation à l'intérieur du pays","date":"1981-04-11","newspaper":"Fraternité Matin","country":"Côte d'Ivoire","type":"articles"}]},{"name":"Touba","lat":8.283333,"lng":-7.683333,"country":"Côte d'Ivoire","articleCount":1,"articles":[{"id":"67843","title":"L'Association musulmane pour l'organisation du pèlerinage à la Mecque : tournée d'une délégation à l'intérieur du pays","date":"1981-04-11","newspaper":"Fraternité Matin","country":"Côte d'Ivoire","type":"articles"}]},{"name":"Man","lat":7.4125,"lng":-7.553611,"country":"Côte d'Ivoire","articleCount":1,"articles":[{"id":"67843","title":"L'Association musulmane pour l'organisation du pèlerinage à la Mecque : tournée d'une délégation à l'intérieur du pays","date":"1981-04-11","newspaper":"Fraternité Matin","country":"Côte d'Ivoire","type":"articles"}]},{"name":"Séguéla","lat":7.9611111111111,"lng":-6.6730555555556,"country":"Côte d'Ivoire","articleCount":1,"articles":[{"id":"67843","title":"L'Association musulmane pour l'organisation du pèlerinage à la Mecque : tournée d'une délégation à l'intérieur du pays","date":"1981-04-11","newspaper":"Fraternité Matin","country":"Côte d'Ivoire","type":"articles"}]},{"name":"Mankono","lat":8.05,"lng":-6.18333333,"country":"Côte d'Ivoire","articleCount":1,"articles":[{"id":"67843","title":"L'Association musulmane pour l'organisation du pèlerinage à la Mecque : tournée d'une délégation à l'intérieur du pays","date":"1981-04-11","newspaper":"Fraternité Matin","country":"Côte d'Ivoire","type":"articles"}]},{"name":"Béoumi","lat":7.666667,"lng":-5.583333,"country":"Côte d'Ivoire","articleCount":1,"articles":[{"id":"67843","title":"L'Association musulmane pour l'organisation du pèlerinage à la Mecque : tournée d'une délégation à l'intérieur du pays","date":"1981-04-11","newspaper":"Fraternité Matin","country":"Côte d'Ivoire","type":"articles"}]},{"name":"Duékoué","lat":6.741944,"lng":-7.349167,"country":"Côte d'Ivoire","articleCount":1,"articles":[{"id":"67843","title":"L'Association musulmane pour l'organisation du pèlerinage à la Mecque : tournée d'une délégation à l'intérieur du pays","date":"1981-04-11","newspaper":"Fraternité Matin","country":"Côte d'Ivoire","type":"articles"}]},{"name":"Lakota","lat":5.8475,"lng":-5.681944,"country":"Côte d'Ivoire","articleCount":1,"articles":[{"id":"67843","title":"L'Association musulmane pour l'organisation du pèlerinage à la Mecque : tournée d'une délégation à l'intérieur du pays","date":"1981-04-11","newspaper":"Fraternité Matin","country":"Côte d'Ivoire","type":"articles"}]},{"name":"Gagnoa","lat":6.13333,"lng":-5.93333,"country":"Côte d'Ivoire","articleCount":1,"articles":[{"id":"67843","title":"L'Association musulmane pour l'organisation du pèlerinage à la Mecque : tournée d'une délégation à l'intérieur du pays","date":"1981-04-11","newspaper":"Fraternité Matin","country":"Côte d'Ivoire","type":"articles"}]},{"name":"San-Pédro","lat":4.733333,"lng":-6.633333,"country":"Burkina Faso","articleCount":1,"articles":[{"id":"67843","title":"L'Association musulmane pour l'organisation du pèlerinage à la Mecque : tournée d'une délégation à l'intérieur du pays","date":"1981-04-11","newspaper":"Fraternité Matin","country":"Côte d'Ivoire","type":"articles"}]},{"name":"Daloa","lat":6.866667,"lng":-6.45,"country":"Côte d'Ivoire","articleCount":1,"articles":[{"id":"67843","title":"L'Association musulmane pour l'organisation du pèlerinage à la Mecque : tournée d'une délégation à l'intérieur du pays","date":"1981-04-11","newspaper":"Fraternité Matin","country":"Côte d'Ivoire","type":"articles"}]},{"name":"Bouaflé","lat":6.990278,"lng":-5.744167,"country":"Côte d'Ivoire","articleCount":1,"articles":[{"id":"67843","title":"L'Association musulmane pour l'organisation du pèlerinage à la Mecque : tournée d'une délégation à l'intérieur du pays","date":"1981-04-11","newspaper":"Fraternité Matin","country":"Côte d'Ivoire","type":"articles"}]},{"name":"Yamoussoukro","lat":6.816111,"lng":-5.274167,"country":"Côte d'Ivoire","articleCount":1,"articles":[{"id":"67843","title":"L'Association musulmane pour l'organisation du pèlerinage à la Mecque : tournée d'une délégation à l'intérieur du pays","date":"1981-04-11","newspaper":"Fraternité Matin","country":"Côte d'Ivoire","type":"articles"}]},{"name":"Daoukro","lat":7.057778,"lng":-3.966111,"country":"Côte d'Ivoire","articleCount":1,"articles":[{"id":"67843","title":"L'Association musulmane pour l'organisation du pèlerinage à la Mecque : tournée d'une délégation à l'intérieur du pays","date":"1981-04-11","newspaper":"Fraternité Matin","country":"Côte d'Ivoire","type":"articles"}]},{"name":"Adzopé","lat":6.103517,"lng":-3.864814,"country":"Côte d'Ivoire","articleCount":1,"articles":[{"id":"67843","title":"L'Association musulmane pour l'organisation du pèlerinage à la Mecque : tournée d'une délégation à l'intérieur du pays","date":"1981-04-11","newspaper":"Fraternité Matin","country":"Côte d'Ivoire","type":"articles"}]},{"name":"Agboville","lat":5.933333,"lng":-4.216667,"country":"Côte d'Ivoire","articleCount":1,"articles":[{"id":"67843","title":"L'Association musulmane pour l'organisation du pèlerinage à la Mecque : tournée d'une délégation à l'intérieur du pays","date":"1981-04-11","newspaper":"Fraternité Matin","country":"Côte d'Ivoire","type":"articles"}]},{"name":"Dabakala","lat":8.3666666666667,"lng":-4.4333333333333,"country":"Côte d'Ivoire","articleCount":1,"articles":[{"id":"67843","title":"L'Association musulmane pour l'organisation du pèlerinage à la Mecque : tournée d'une délégation à l'intérieur du pays","date":"1981-04-11","newspaper":"Fraternité Matin","country":"Côte d'Ivoire","type":"articles"}]},{"name":"Boundiali","lat":9.516667,"lng":-6.483333,"country":"Côte d'Ivoire","articleCount":1,"articles":[{"id":"67843","title":"L'Association musulmane pour l'organisation du pèlerinage à la Mecque : tournée d'une délégation à l'intérieur du pays","date":"1981-04-11","newspaper":"Fraternité Matin","country":"Côte d'Ivoire","type":"articles"}]},{"name":"Danané","lat":7.26666667,"lng":-8.16666667,"country":"Côte d'Ivoire","articleCount":1,"articles":[{"id":"67843","title":"L'Association musulmane pour l'organisation du pèlerinage à la Mecque : tournée d'une délégation à l'intérieur du pays","date":"1981-04-11","newspaper":"Fraternité Matin","country":"Côte d'Ivoire","type":"articles"}]},{"name":"Guiglo","lat":6.5436111111111,"lng":-7.4933333333333,"country":"Côte d'Ivoire","articleCount":1,"articles":[{"id":"67843","title":"L'Association musulmane pour l'organisation du pèlerinage à la Mecque : tournée d'une délégation à l'intérieur du pays","date":"1981-04-11","newspaper":"Fraternité Matin","country":"Côte d'Ivoire","type":"articles"}]},{"name":"Sakassou","lat":7.447222,"lng":-5.294444,"country":"Côte d'Ivoire","articleCount":1,"articles":[{"id":"67843","title":"L'Association musulmane pour l'organisation du pèlerinage à la Mecque : tournée d'une délégation à l'intérieur du pays","date":"1981-04-11","newspaper":"Fraternité Matin","country":"Côte d'Ivoire","type":"articles"}]},{"name":"Tiébissou","lat":7.15,"lng":-5.2333333333333,"country":"Côte d'Ivoire","articleCount":1,"articles":[{"id":"67843","title":"L'Association musulmane pour l'organisation du pèlerinage à la Mecque : tournée d'une délégation à l'intérieur du pays","date":"1981-04-11","newspaper":"Fraternité Matin","country":"Côte d'Ivoire","type":"articles"}]},{"name":"Tiassalé","lat":5.89839,"lng":-4.82293,"country":"Côte d'Ivoire","articleCount":1,"articles":[{"id":"67843","title":"L'Association musulmane pour l'organisation du pèlerinage à la Mecque : tournée d'une délégation à l'intérieur du pays","date":"1981-04-11","newspaper":"Fraternité Matin","country":"Côte d'Ivoire","type":"articles"}]},{"name":"Sinfra","lat":6.62103,"lng":-5.91144,"country":"Côte d'Ivoire","articleCount":1,"articles":[{"id":"67843","title":"L'Association musulmane pour l'organisation du pèlerinage à la Mecque : tournée d'une délégation à l'intérieur du pays","date":"1981-04-11","newspaper":"Fraternité Matin","country":"Côte d'Ivoire","type":"articles"}]},{"name":"Soubré","lat":5.7836111111111,"lng":-6.5938888888889,"country":"Côte d'Ivoire","articleCount":1,"articles":[{"id":"67843","title":"L'Association musulmane pour l'organisation du pèlerinage à la Mecque : tournée d'une délégation à l'intérieur du pays","date":"1981-04-11","newspaper":"Fraternité Matin","country":"Côte d'Ivoire","type":"articles"}]},{"name":"Issia","lat":6.4922222222222,"lng":-6.5855555555556,"country":"Côte d'Ivoire","articleCount":1,"articles":[{"id":"67843","title":"L'Association musulmane pour l'organisation du pèlerinage à la Mecque : tournée d'une délégation à l'intérieur du pays","date":"1981-04-11","newspaper":"Fraternité Matin","country":"Côte d'Ivoire","type":"articles"}]},{"name":"Toumodi","lat":6.5557,"lng":-5.017,"country":"Côte d'Ivoire","articleCount":1,"articles":[{"id":"67843","title":"L'Association musulmane pour l'organisation du pèlerinage à la Mecque : tournée d'une délégation à l'intérieur du pays","date":"1981-04-11","newspaper":"Fraternité Matin","country":"Côte d'Ivoire","type":"articles"}]},{"name":"Dimbokro","lat":6.6466666666667,"lng":-4.705,"country":"Côte d'Ivoire","articleCount":1,"articles":[{"id":"67843","title":"L'Association musulmane pour l'organisation du pèlerinage à la Mecque : tournée d'une délégation à l'intérieur du pays","date":"1981-04-11","newspaper":"Fraternité Matin","country":"Côte d'Ivoire","type":"articles"}]},{"name":"Bongouanou","lat":6.65,"lng":-4.2,"country":"Côte d'Ivoire","articleCount":1,"articles":[{"id":"67843","title":"L'Association musulmane pour l'organisation du pèlerinage à la Mecque : tournée d'une délégation à l'intérieur du pays","date":"1981-04-11","newspaper":"Fraternité Matin","country":"Côte d'Ivoire","type":"articles"}]},{"name":"Akoupé","lat":6.3811111111111,"lng":-3.8872222222222,"country":"Côte d'Ivoire","articleCount":1,"articles":[{"id":"67843","title":"L'Association musulmane pour l'organisation du pèlerinage à la Mecque : tournée d'une délégation à l'intérieur du pays","date":"1981-04-11","newspaper":"Fraternité Matin","country":"Côte d'Ivoire","type":"articles"}]},{"name":"Grand-Bassam","lat":5.2118,"lng":-3.73884,"country":"Côte d'Ivoire","articleCount":1,"articles":[{"id":"67918","title":"Ramadan. Nuit du destin ou \"Kroubissou\": tous les musulmans veilleront dans les mosquées","date":"1979-08-20","newspaper":"Fraternité Matin","country":"Côte d'Ivoire","type":"articles"}]},{"name":"Abobo","lat":5.418889,"lng":-4.020556,"country":"Côte d'Ivoire","articleCount":1,"articles":[{"id":"74066","title":"Abobo Maoulid 2010 : Toungara prie avec ses administrés","date":"2010-03-01","newspaper":"Le Jour Plus","country":"Côte d'Ivoire","type":"articles"}]}]}