{"id":45933,"name":"Emile Bassono","type":"Personnes","stats":{"articleCount":1,"countries":["Benin","Burkina Faso","Chad","Libya","Palestine","South Africa","Turkey","Uganda"],"dateRange":{"first":"1979-09-28","last":"1979-09-28"}},"locations":[{"name":"Tripoli","lat":32.88743,"lng":13.18733,"country":"Libya","articleCount":1,"articles":[{"id":"75972","title":"Le Président Lamizana à Tripoli","date":"1979-09-28","newspaper":"Carrefour africain","country":"Burkina Faso","type":"articles"}]},{"name":"Fada N'Gourma","lat":12.06157,"lng":0.35843,"country":"Burkina Faso","articleCount":1,"articles":[{"id":"75972","title":"Le Président Lamizana à Tripoli","date":"1979-09-28","newspaper":"Carrefour africain","country":"Burkina Faso","type":"articles"}]},{"name":"Libye","lat":28.0,"lng":17.0,"country":"Libya","articleCount":1,"articles":[{"id":"75972","title":"Le Président Lamizana à Tripoli","date":"1979-09-28","newspaper":"Carrefour africain","country":"Burkina Faso","type":"articles"}]},{"name":"Ouagadougou","lat":12.36566,"lng":-1.53388,"country":"Burkina Faso","articleCount":1,"articles":[{"id":"75972","title":"Le Président Lamizana à Tripoli","date":"1979-09-28","newspaper":"Carrefour africain","country":"Burkina Faso","type":"articles"}]},{"name":"Benghazi","lat":32.116667,"lng":20.066667,"country":"Libya","articleCount":1,"articles":[{"id":"75972","title":"Le Président Lamizana à Tripoli","date":"1979-09-28","newspaper":"Carrefour africain","country":"Burkina Faso","type":"articles"}]},{"name":"Turquie","lat":39.0,"lng":35.0,"country":"Turkey","articleCount":1,"articles":[{"id":"75972","title":"Le Président Lamizana à Tripoli","date":"1979-09-28","newspaper":"Carrefour africain","country":"Burkina Faso","type":"articles"}]},{"name":"Afrique du Sud","lat":-29.0,"lng":24.0,"country":"South Africa","articleCount":1,"articles":[{"id":"75972","title":"Le Président Lamizana à Tripoli","date":"1979-09-28","newspaper":"Carrefour africain","country":"Burkina Faso","type":"articles"}]},{"name":"Palestine","lat":31.92157,"lng":35.20329,"country":"Palestine","articleCount":1,"articles":[{"id":"75972","title":"Le Président Lamizana à Tripoli","date":"1979-09-28","newspaper":"Carrefour africain","country":"Burkina Faso","type":"articles"}]},{"name":"Ouganda","lat":1.28,"lng":32.39,"country":"Uganda","articleCount":1,"articles":[{"id":"75972","title":"Le Président Lamizana à Tripoli","date":"1979-09-28","newspaper":"Carrefour africain","country":"Burkina Faso","type":"articles"}]},{"name":"Tchad","lat":15.0,"lng":19.0,"country":"Chad","articleCount":1,"articles":[{"id":"75972","title":"Le Président Lamizana à Tripoli","date":"1979-09-28","newspaper":"Carrefour africain","country":"Burkina Faso","type":"articles"}]},{"name":"Lagos","lat":6.45,"lng":3.4,"country":"Benin","articleCount":1,"articles":[{"id":"75972","title":"Le Président Lamizana à Tripoli","date":"1979-09-28","newspaper":"Carrefour africain","country":"Burkina Faso","type":"articles"}]},{"name":"Burkina Faso","lat":12.5,"lng":-1.66667,"country":"Burkina Faso","articleCount":1,"articles":[{"id":"75972","title":"Le Président Lamizana à Tripoli","date":"1979-09-28","newspaper":"Carrefour africain","country":"Burkina Faso","type":"articles"}]}]}