{"id":62179,"name":"Laman Bakayoko","type":"Personnes","stats":{"articleCount":3,"countries":["Côte d'Ivoire","Niger"],"dateRange":{"first":"1985-08-17","last":"1995-05-11"}},"locations":[{"name":"Adjamé","lat":5.3648,"lng":-4.02366,"country":"Côte d'Ivoire","articleCount":3,"articles":[{"id":"63857","title":"Nuit du Destin : une chance renouvelée pour les musulmans","date":"1994-03-11","newspaper":"Fraternité Matin","country":"Côte d'Ivoire","type":"articles"},{"id":"63894","title":"Tabaski : l'appel des imams","date":"1995-05-11","newspaper":"Fraternité Matin","country":"Côte d'Ivoire","type":"articles"},{"id":"68202","title":"Une grande militante disparait : veuve Lamad Camara conduite hier à sa dernière demeure","date":"1985-08-17","newspaper":"Fraternité Matin","country":"Côte d'Ivoire","type":"articles"}]},{"name":"Côte d'Ivoire","lat":8.0,"lng":-5.5,"country":"Côte d'Ivoire","articleCount":2,"articles":[{"id":"63857","title":"Nuit du Destin : une chance renouvelée pour les musulmans","date":"1994-03-11","newspaper":"Fraternité Matin","country":"Côte d'Ivoire","type":"articles"},{"id":"63894","title":"Tabaski : l'appel des imams","date":"1995-05-11","newspaper":"Fraternité Matin","country":"Côte d'Ivoire","type":"articles"}]},{"name":"Treichville","lat":5.3,"lng":-4.0,"country":"Côte d'Ivoire","articleCount":2,"articles":[{"id":"63894","title":"Tabaski : l'appel des imams","date":"1995-05-11","newspaper":"Fraternité Matin","country":"Côte d'Ivoire","type":"articles"},{"id":"68202","title":"Une grande militante disparait : veuve Lamad Camara conduite hier à sa dernière demeure","date":"1985-08-17","newspaper":"Fraternité Matin","country":"Côte d'Ivoire","type":"articles"}]},{"name":"Abidjan","lat":5.35444,"lng":-4.00167,"country":"Côte d'Ivoire","articleCount":1,"articles":[{"id":"63894","title":"Tabaski : l'appel des imams","date":"1995-05-11","newspaper":"Fraternité Matin","country":"Côte d'Ivoire","type":"articles"}]},{"name":"Abobo","lat":5.418889,"lng":-4.020556,"country":"Côte d'Ivoire","articleCount":1,"articles":[{"id":"63894","title":"Tabaski : l'appel des imams","date":"1995-05-11","newspaper":"Fraternité Matin","country":"Côte d'Ivoire","type":"articles"}]},{"name":"Yopougon","lat":5.316667,"lng":-4.066667,"country":"Côte d'Ivoire","articleCount":1,"articles":[{"id":"63894","title":"Tabaski : l'appel des imams","date":"1995-05-11","newspaper":"Fraternité Matin","country":"Côte d'Ivoire","type":"articles"}]},{"name":"Aghien","lat":5.388123,"lng":-3.999984,"country":"Côte d'Ivoire","articleCount":1,"articles":[{"id":"63894","title":"Tabaski : l'appel des imams","date":"1995-05-11","newspaper":"Fraternité Matin","country":"Côte d'Ivoire","type":"articles"}]},{"name":"Sahel","lat":14.474672,"lng":13.511696,"country":"Niger","articleCount":1,"articles":[{"id":"63894","title":"Tabaski : l'appel des imams","date":"1995-05-11","newspaper":"Fraternité Matin","country":"Côte d'Ivoire","type":"articles"}]},{"name":"Mosquée de la Riviéra Golf","lat":5.33757653748572,"lng":-3.9788409923568815,"country":"Côte d'Ivoire","articleCount":1,"articles":[{"id":"63894","title":"Tabaski : l'appel des imams","date":"1995-05-11","newspaper":"Fraternité Matin","country":"Côte d'Ivoire","type":"articles"}]},{"name":"Grande mosquée des II-Plateaux Aghien","lat":5.382535557731071,"lng":-3.993870062858185,"country":"Côte d'Ivoire","articleCount":1,"articles":[{"id":"63894","title":"Tabaski : l'appel des imams","date":"1995-05-11","newspaper":"Fraternité Matin","country":"Côte d'Ivoire","type":"articles"}]},{"name":"École régionale de Treichville","lat":0,"lng":0,"country":"Unknown","articleCount":1,"articles":[{"id":"63894","title":"Tabaski : l'appel des imams","date":"1995-05-11","newspaper":"Fraternité Matin","country":"Côte d'Ivoire","type":"articles"}]},{"name":"Grand-Bassam","lat":5.2118,"lng":-3.73884,"country":"Côte d'Ivoire","articleCount":1,"articles":[{"id":"68202","title":"Une grande militante disparait : veuve Lamad Camara conduite hier à sa dernière demeure","date":"1985-08-17","newspaper":"Fraternité Matin","country":"Côte d'Ivoire","type":"articles"}]},{"name":"Williamsville","lat":5.372656157414483,"lng":-4.0202704387950305,"country":"Côte d'Ivoire","articleCount":1,"articles":[{"id":"68202","title":"Une grande militante disparait : veuve Lamad Camara conduite hier à sa dernière demeure","date":"1985-08-17","newspaper":"Fraternité Matin","country":"Côte d'Ivoire","type":"articles"}]}]}