{"id":62221,"name":"Abou Keïta","type":"Personnes","stats":{"articleCount":7,"countries":["Burkina Faso","Côte d'Ivoire","Saudi Arabia"],"dateRange":{"first":"1979-12-31","last":"2012-10-24"}},"locations":[{"name":"La Mecque","lat":21.4225,"lng":39.826111,"country":"Saudi Arabia","articleCount":5,"articles":[{"id":"67843","title":"L'Association musulmane pour l'organisation du pèlerinage à la Mecque : tournée d'une délégation à l'intérieur du pays","date":"1981-04-11","newspaper":"Fraternité Matin","country":"Côte d'Ivoire","type":"articles"},{"id":"67872","title":"Pèlerinage à la Mecque : déjà 750 fidèles en terre sainte","date":"1980-09-25","newspaper":"Fraternité Matin","country":"Côte d'Ivoire","type":"articles"},{"id":"67874","title":"Pèlerinage à La Mecque. Mina : la ville qui ne vit que pour le pèlerinage","date":"1980-09-22","newspaper":"Fraternité Matin","country":"Côte d'Ivoire","type":"articles"},{"id":"67881","title":"L'Association pour l'organisation du pèlerinage à La Mecque : le comité tire les leçons du dernier pèlerinage à La Mecque","date":"1979-12-31","newspaper":"Fraternité Matin","country":"Côte d'Ivoire","type":"articles"},{"id":"67966","title":"Pèlerinage : un millier d'Ivoiriens à la Mecque cette année","date":"1983-08-25","newspaper":"Fraternité Matin","country":"Côte d'Ivoire","type":"articles"}]},{"name":"Arabie saoudite","lat":25.0,"lng":45.0,"country":"Saudi Arabia","articleCount":4,"articles":[{"id":"67843","title":"L'Association musulmane pour l'organisation du pèlerinage à la Mecque : tournée d'une délégation à l'intérieur du pays","date":"1981-04-11","newspaper":"Fraternité Matin","country":"Côte d'Ivoire","type":"articles"},{"id":"67872","title":"Pèlerinage à la Mecque : déjà 750 fidèles en terre sainte","date":"1980-09-25","newspaper":"Fraternité Matin","country":"Côte d'Ivoire","type":"articles"},{"id":"67874","title":"Pèlerinage à La Mecque. Mina : la ville qui ne vit que pour le pèlerinage","date":"1980-09-22","newspaper":"Fraternité Matin","country":"Côte d'Ivoire","type":"articles"},{"id":"67881","title":"L'Association pour l'organisation du pèlerinage à La Mecque : le comité tire les leçons du dernier pèlerinage à La Mecque","date":"1979-12-31","newspaper":"Fraternité Matin","country":"Côte d'Ivoire","type":"articles"}]},{"name":"Abidjan","lat":5.35444,"lng":-4.00167,"country":"Côte d'Ivoire","articleCount":4,"articles":[{"id":"67881","title":"L'Association pour l'organisation du pèlerinage à La Mecque : le comité tire les leçons du dernier pèlerinage à La Mecque","date":"1979-12-31","newspaper":"Fraternité Matin","country":"Côte d'Ivoire","type":"articles"},{"id":"67966","title":"Pèlerinage : un millier d'Ivoiriens à la Mecque cette année","date":"1983-08-25","newspaper":"Fraternité Matin","country":"Côte d'Ivoire","type":"articles"},{"id":"68194","title":"Hadj Natogoma, décédée le 21 avril : ultime hommage à une grande militante","date":"1986-04-28","newspaper":"Fraternité Matin","country":"Côte d'Ivoire","type":"articles"},{"id":"73744","title":"À deux jours de la fête de Tabaski : comment les populations abidjanaises se préparent","date":"2012-10-24","newspaper":"Le Jour Plus","country":"Côte d'Ivoire","type":"articles"}]},{"name":"Côte d'Ivoire","lat":8.0,"lng":-5.5,"country":"Côte d'Ivoire","articleCount":3,"articles":[{"id":"67843","title":"L'Association musulmane pour l'organisation du pèlerinage à la Mecque : tournée d'une délégation à l'intérieur du pays","date":"1981-04-11","newspaper":"Fraternité Matin","country":"Côte d'Ivoire","type":"articles"},{"id":"67874","title":"Pèlerinage à La Mecque. Mina : la ville qui ne vit que pour le pèlerinage","date":"1980-09-22","newspaper":"Fraternité Matin","country":"Côte d'Ivoire","type":"articles"},{"id":"67881","title":"L'Association pour l'organisation du pèlerinage à La Mecque : le comité tire les leçons du dernier pèlerinage à La Mecque","date":"1979-12-31","newspaper":"Fraternité Matin","country":"Côte d'Ivoire","type":"articles"}]},{"name":"Korhogo","lat":9.457778,"lng":-5.629444,"country":"Côte d'Ivoire","articleCount":3,"articles":[{"id":"67843","title":"L'Association musulmane pour l'organisation du pèlerinage à la Mecque : tournée d'une délégation à l'intérieur du pays","date":"1981-04-11","newspaper":"Fraternité Matin","country":"Côte d'Ivoire","type":"articles"},{"id":"67881","title":"L'Association pour l'organisation du pèlerinage à La Mecque : le comité tire les leçons du dernier pèlerinage à La Mecque","date":"1979-12-31","newspaper":"Fraternité Matin","country":"Côte d'Ivoire","type":"articles"},{"id":"68194","title":"Hadj Natogoma, décédée le 21 avril : ultime hommage à une grande militante","date":"1986-04-28","newspaper":"Fraternité Matin","country":"Côte d'Ivoire","type":"articles"}]},{"name":"Djeddah","lat":21.49012,"lng":39.18624,"country":"Saudi Arabia","articleCount":3,"articles":[{"id":"67872","title":"Pèlerinage à la Mecque : déjà 750 fidèles en terre sainte","date":"1980-09-25","newspaper":"Fraternité Matin","country":"Côte d'Ivoire","type":"articles"},{"id":"67874","title":"Pèlerinage à La Mecque. Mina : la ville qui ne vit que pour le pèlerinage","date":"1980-09-22","newspaper":"Fraternité Matin","country":"Côte d'Ivoire","type":"articles"},{"id":"67881","title":"L'Association pour l'organisation du pèlerinage à La Mecque : le comité tire les leçons du dernier pèlerinage à La Mecque","date":"1979-12-31","newspaper":"Fraternité Matin","country":"Côte d'Ivoire","type":"articles"}]},{"name":"Odienné","lat":9.5,"lng":-7.566667,"country":"Côte d'Ivoire","articleCount":2,"articles":[{"id":"67843","title":"L'Association musulmane pour l'organisation du pèlerinage à la Mecque : tournée d'une délégation à l'intérieur du pays","date":"1981-04-11","newspaper":"Fraternité Matin","country":"Côte d'Ivoire","type":"articles"},{"id":"67881","title":"L'Association pour l'organisation du pèlerinage à La Mecque : le comité tire les leçons du dernier pèlerinage à La Mecque","date":"1979-12-31","newspaper":"Fraternité Matin","country":"Côte d'Ivoire","type":"articles"}]},{"name":"Yamoussoukro","lat":6.816111,"lng":-5.274167,"country":"Côte d'Ivoire","articleCount":2,"articles":[{"id":"67843","title":"L'Association musulmane pour l'organisation du pèlerinage à la Mecque : tournée d'une délégation à l'intérieur du pays","date":"1981-04-11","newspaper":"Fraternité Matin","country":"Côte d'Ivoire","type":"articles"},{"id":"67881","title":"L'Association pour l'organisation du pèlerinage à La Mecque : le comité tire les leçons du dernier pèlerinage à La Mecque","date":"1979-12-31","newspaper":"Fraternité Matin","country":"Côte d'Ivoire","type":"articles"}]},{"name":"Bouaké","lat":7.68333,"lng":-5.03306,"country":"Côte d'Ivoire","articleCount":2,"articles":[{"id":"67843","title":"L'Association musulmane pour l'organisation du pèlerinage à la Mecque : tournée d'une délégation à l'intérieur du pays","date":"1981-04-11","newspaper":"Fraternité Matin","country":"Côte d'Ivoire","type":"articles"},{"id":"67881","title":"L'Association pour l'organisation du pèlerinage à La Mecque : le comité tire les leçons du dernier pèlerinage à La Mecque","date":"1979-12-31","newspaper":"Fraternité Matin","country":"Côte d'Ivoire","type":"articles"}]},{"name":"Mont Arafat","lat":21.354831,"lng":39.983886,"country":"Saudi Arabia","articleCount":2,"articles":[{"id":"67874","title":"Pèlerinage à La Mecque. Mina : la ville qui ne vit que pour le pèlerinage","date":"1980-09-22","newspaper":"Fraternité Matin","country":"Côte d'Ivoire","type":"articles"},{"id":"67881","title":"L'Association pour l'organisation du pèlerinage à La Mecque : le comité tire les leçons du dernier pèlerinage à La Mecque","date":"1979-12-31","newspaper":"Fraternité Matin","country":"Côte d'Ivoire","type":"articles"}]},{"name":"Médine","lat":24.46861,"lng":39.61417,"country":"Saudi Arabia","articleCount":2,"articles":[{"id":"67874","title":"Pèlerinage à La Mecque. Mina : la ville qui ne vit que pour le pèlerinage","date":"1980-09-22","newspaper":"Fraternité Matin","country":"Côte d'Ivoire","type":"articles"},{"id":"67881","title":"L'Association pour l'organisation du pèlerinage à La Mecque : le comité tire les leçons du dernier pèlerinage à La Mecque","date":"1979-12-31","newspaper":"Fraternité Matin","country":"Côte d'Ivoire","type":"articles"}]},{"name":"Mina","lat":21.413333,"lng":39.893333,"country":"Saudi Arabia","articleCount":2,"articles":[{"id":"67874","title":"Pèlerinage à La Mecque. Mina : la ville qui ne vit que pour le pèlerinage","date":"1980-09-22","newspaper":"Fraternité Matin","country":"Côte d'Ivoire","type":"articles"},{"id":"67881","title":"L'Association pour l'organisation du pèlerinage à La Mecque : le comité tire les leçons du dernier pèlerinage à La Mecque","date":"1979-12-31","newspaper":"Fraternité Matin","country":"Côte d'Ivoire","type":"articles"}]},{"name":"Treichville","lat":5.3,"lng":-4.0,"country":"Côte d'Ivoire","articleCount":2,"articles":[{"id":"67881","title":"L'Association pour l'organisation du pèlerinage à La Mecque : le comité tire les leçons du dernier pèlerinage à La Mecque","date":"1979-12-31","newspaper":"Fraternité Matin","country":"Côte d'Ivoire","type":"articles"},{"id":"73744","title":"À deux jours de la fête de Tabaski : comment les populations abidjanaises se préparent","date":"2012-10-24","newspaper":"Le Jour Plus","country":"Côte d'Ivoire","type":"articles"}]},{"name":"Abengourou","lat":6.729722,"lng":-3.496389,"country":"Côte d'Ivoire","articleCount":1,"articles":[{"id":"67843","title":"L'Association musulmane pour l'organisation du pèlerinage à la Mecque : tournée d'une délégation à l'intérieur du pays","date":"1981-04-11","newspaper":"Fraternité Matin","country":"Côte d'Ivoire","type":"articles"}]},{"name":"Bondoukou","lat":8.04,"lng":-2.8,"country":"Côte d'Ivoire","articleCount":1,"articles":[{"id":"67843","title":"L'Association musulmane pour l'organisation du pèlerinage à la Mecque : tournée d'une délégation à l'intérieur du pays","date":"1981-04-11","newspaper":"Fraternité Matin","country":"Côte d'Ivoire","type":"articles"}]},{"name":"Touba","lat":8.283333,"lng":-7.683333,"country":"Côte d'Ivoire","articleCount":1,"articles":[{"id":"67843","title":"L'Association musulmane pour l'organisation du pèlerinage à la Mecque : tournée d'une délégation à l'intérieur du pays","date":"1981-04-11","newspaper":"Fraternité Matin","country":"Côte d'Ivoire","type":"articles"}]},{"name":"Man","lat":7.4125,"lng":-7.553611,"country":"Côte d'Ivoire","articleCount":1,"articles":[{"id":"67843","title":"L'Association musulmane pour l'organisation du pèlerinage à la Mecque : tournée d'une délégation à l'intérieur du pays","date":"1981-04-11","newspaper":"Fraternité Matin","country":"Côte d'Ivoire","type":"articles"}]},{"name":"Séguéla","lat":7.9611111111111,"lng":-6.6730555555556,"country":"Côte d'Ivoire","articleCount":1,"articles":[{"id":"67843","title":"L'Association musulmane pour l'organisation du pèlerinage à la Mecque : tournée d'une délégation à l'intérieur du pays","date":"1981-04-11","newspaper":"Fraternité Matin","country":"Côte d'Ivoire","type":"articles"}]},{"name":"Mankono","lat":8.05,"lng":-6.18333333,"country":"Côte d'Ivoire","articleCount":1,"articles":[{"id":"67843","title":"L'Association musulmane pour l'organisation du pèlerinage à la Mecque : tournée d'une délégation à l'intérieur du pays","date":"1981-04-11","newspaper":"Fraternité Matin","country":"Côte d'Ivoire","type":"articles"}]},{"name":"Béoumi","lat":7.666667,"lng":-5.583333,"country":"Côte d'Ivoire","articleCount":1,"articles":[{"id":"67843","title":"L'Association musulmane pour l'organisation du pèlerinage à la Mecque : tournée d'une délégation à l'intérieur du pays","date":"1981-04-11","newspaper":"Fraternité Matin","country":"Côte d'Ivoire","type":"articles"}]},{"name":"Duékoué","lat":6.741944,"lng":-7.349167,"country":"Côte d'Ivoire","articleCount":1,"articles":[{"id":"67843","title":"L'Association musulmane pour l'organisation du pèlerinage à la Mecque : tournée d'une délégation à l'intérieur du pays","date":"1981-04-11","newspaper":"Fraternité Matin","country":"Côte d'Ivoire","type":"articles"}]},{"name":"Divo","lat":5.837222,"lng":-5.357222,"country":"Côte d'Ivoire","articleCount":1,"articles":[{"id":"67843","title":"L'Association musulmane pour l'organisation du pèlerinage à la Mecque : tournée d'une délégation à l'intérieur du pays","date":"1981-04-11","newspaper":"Fraternité Matin","country":"Côte d'Ivoire","type":"articles"}]},{"name":"Lakota","lat":5.8475,"lng":-5.681944,"country":"Côte d'Ivoire","articleCount":1,"articles":[{"id":"67843","title":"L'Association musulmane pour l'organisation du pèlerinage à la Mecque : tournée d'une délégation à l'intérieur du pays","date":"1981-04-11","newspaper":"Fraternité Matin","country":"Côte d'Ivoire","type":"articles"}]},{"name":"Gagnoa","lat":6.13333,"lng":-5.93333,"country":"Côte d'Ivoire","articleCount":1,"articles":[{"id":"67843","title":"L'Association musulmane pour l'organisation du pèlerinage à la Mecque : tournée d'une délégation à l'intérieur du pays","date":"1981-04-11","newspaper":"Fraternité Matin","country":"Côte d'Ivoire","type":"articles"}]},{"name":"Oumé","lat":6.3833333333333,"lng":-5.4166666666667,"country":"Côte d'Ivoire","articleCount":1,"articles":[{"id":"67843","title":"L'Association musulmane pour l'organisation du pèlerinage à la Mecque : tournée d'une délégation à l'intérieur du pays","date":"1981-04-11","newspaper":"Fraternité Matin","country":"Côte d'Ivoire","type":"articles"}]},{"name":"San-Pédro","lat":4.733333,"lng":-6.633333,"country":"Burkina Faso","articleCount":1,"articles":[{"id":"67843","title":"L'Association musulmane pour l'organisation du pèlerinage à la Mecque : tournée d'une délégation à l'intérieur du pays","date":"1981-04-11","newspaper":"Fraternité Matin","country":"Côte d'Ivoire","type":"articles"}]},{"name":"Daloa","lat":6.866667,"lng":-6.45,"country":"Côte d'Ivoire","articleCount":1,"articles":[{"id":"67843","title":"L'Association musulmane pour l'organisation du pèlerinage à la Mecque : tournée d'une délégation à l'intérieur du pays","date":"1981-04-11","newspaper":"Fraternité Matin","country":"Côte d'Ivoire","type":"articles"}]},{"name":"Bouaflé","lat":6.990278,"lng":-5.744167,"country":"Côte d'Ivoire","articleCount":1,"articles":[{"id":"67843","title":"L'Association musulmane pour l'organisation du pèlerinage à la Mecque : tournée d'une délégation à l'intérieur du pays","date":"1981-04-11","newspaper":"Fraternité Matin","country":"Côte d'Ivoire","type":"articles"}]},{"name":"Daoukro","lat":7.057778,"lng":-3.966111,"country":"Côte d'Ivoire","articleCount":1,"articles":[{"id":"67843","title":"L'Association musulmane pour l'organisation du pèlerinage à la Mecque : tournée d'une délégation à l'intérieur du pays","date":"1981-04-11","newspaper":"Fraternité Matin","country":"Côte d'Ivoire","type":"articles"}]},{"name":"Adzopé","lat":6.103517,"lng":-3.864814,"country":"Côte d'Ivoire","articleCount":1,"articles":[{"id":"67843","title":"L'Association musulmane pour l'organisation du pèlerinage à la Mecque : tournée d'une délégation à l'intérieur du pays","date":"1981-04-11","newspaper":"Fraternité Matin","country":"Côte d'Ivoire","type":"articles"}]},{"name":"Agboville","lat":5.933333,"lng":-4.216667,"country":"Côte d'Ivoire","articleCount":1,"articles":[{"id":"67843","title":"L'Association musulmane pour l'organisation du pèlerinage à la Mecque : tournée d'une délégation à l'intérieur du pays","date":"1981-04-11","newspaper":"Fraternité Matin","country":"Côte d'Ivoire","type":"articles"}]},{"name":"Bouna","lat":9.26666667,"lng":-3.0,"country":"Côte d'Ivoire","articleCount":1,"articles":[{"id":"67843","title":"L'Association musulmane pour l'organisation du pèlerinage à la Mecque : tournée d'une délégation à l'intérieur du pays","date":"1981-04-11","newspaper":"Fraternité Matin","country":"Côte d'Ivoire","type":"articles"}]},{"name":"Dabakala","lat":8.3666666666667,"lng":-4.4333333333333,"country":"Côte d'Ivoire","articleCount":1,"articles":[{"id":"67843","title":"L'Association musulmane pour l'organisation du pèlerinage à la Mecque : tournée d'une délégation à l'intérieur du pays","date":"1981-04-11","newspaper":"Fraternité Matin","country":"Côte d'Ivoire","type":"articles"}]},{"name":"Boundiali","lat":9.516667,"lng":-6.483333,"country":"Côte d'Ivoire","articleCount":1,"articles":[{"id":"67843","title":"L'Association musulmane pour l'organisation du pèlerinage à la Mecque : tournée d'une délégation à l'intérieur du pays","date":"1981-04-11","newspaper":"Fraternité Matin","country":"Côte d'Ivoire","type":"articles"}]},{"name":"Danané","lat":7.26666667,"lng":-8.16666667,"country":"Côte d'Ivoire","articleCount":1,"articles":[{"id":"67843","title":"L'Association musulmane pour l'organisation du pèlerinage à la Mecque : tournée d'une délégation à l'intérieur du pays","date":"1981-04-11","newspaper":"Fraternité Matin","country":"Côte d'Ivoire","type":"articles"}]},{"name":"Guiglo","lat":6.5436111111111,"lng":-7.4933333333333,"country":"Côte d'Ivoire","articleCount":1,"articles":[{"id":"67843","title":"L'Association musulmane pour l'organisation du pèlerinage à la Mecque : tournée d'une délégation à l'intérieur du pays","date":"1981-04-11","newspaper":"Fraternité Matin","country":"Côte d'Ivoire","type":"articles"}]},{"name":"Sakassou","lat":7.447222,"lng":-5.294444,"country":"Côte d'Ivoire","articleCount":1,"articles":[{"id":"67843","title":"L'Association musulmane pour l'organisation du pèlerinage à la Mecque : tournée d'une délégation à l'intérieur du pays","date":"1981-04-11","newspaper":"Fraternité Matin","country":"Côte d'Ivoire","type":"articles"}]},{"name":"Tiébissou","lat":7.15,"lng":-5.2333333333333,"country":"Côte d'Ivoire","articleCount":1,"articles":[{"id":"67843","title":"L'Association musulmane pour l'organisation du pèlerinage à la Mecque : tournée d'une délégation à l'intérieur du pays","date":"1981-04-11","newspaper":"Fraternité Matin","country":"Côte d'Ivoire","type":"articles"}]},{"name":"Tiassalé","lat":5.89839,"lng":-4.82293,"country":"Côte d'Ivoire","articleCount":1,"articles":[{"id":"67843","title":"L'Association musulmane pour l'organisation du pèlerinage à la Mecque : tournée d'une délégation à l'intérieur du pays","date":"1981-04-11","newspaper":"Fraternité Matin","country":"Côte d'Ivoire","type":"articles"}]},{"name":"Sinfra","lat":6.62103,"lng":-5.91144,"country":"Côte d'Ivoire","articleCount":1,"articles":[{"id":"67843","title":"L'Association musulmane pour l'organisation du pèlerinage à la Mecque : tournée d'une délégation à l'intérieur du pays","date":"1981-04-11","newspaper":"Fraternité Matin","country":"Côte d'Ivoire","type":"articles"}]},{"name":"Soubré","lat":5.7836111111111,"lng":-6.5938888888889,"country":"Côte d'Ivoire","articleCount":1,"articles":[{"id":"67843","title":"L'Association musulmane pour l'organisation du pèlerinage à la Mecque : tournée d'une délégation à l'intérieur du pays","date":"1981-04-11","newspaper":"Fraternité Matin","country":"Côte d'Ivoire","type":"articles"}]},{"name":"Issia","lat":6.4922222222222,"lng":-6.5855555555556,"country":"Côte d'Ivoire","articleCount":1,"articles":[{"id":"67843","title":"L'Association musulmane pour l'organisation du pèlerinage à la Mecque : tournée d'une délégation à l'intérieur du pays","date":"1981-04-11","newspaper":"Fraternité Matin","country":"Côte d'Ivoire","type":"articles"}]},{"name":"Toumodi","lat":6.5557,"lng":-5.017,"country":"Côte d'Ivoire","articleCount":1,"articles":[{"id":"67843","title":"L'Association musulmane pour l'organisation du pèlerinage à la Mecque : tournée d'une délégation à l'intérieur du pays","date":"1981-04-11","newspaper":"Fraternité Matin","country":"Côte d'Ivoire","type":"articles"}]},{"name":"Dimbokro","lat":6.6466666666667,"lng":-4.705,"country":"Côte d'Ivoire","articleCount":1,"articles":[{"id":"67843","title":"L'Association musulmane pour l'organisation du pèlerinage à la Mecque : tournée d'une délégation à l'intérieur du pays","date":"1981-04-11","newspaper":"Fraternité Matin","country":"Côte d'Ivoire","type":"articles"}]},{"name":"Bongouanou","lat":6.65,"lng":-4.2,"country":"Côte d'Ivoire","articleCount":1,"articles":[{"id":"67843","title":"L'Association musulmane pour l'organisation du pèlerinage à la Mecque : tournée d'une délégation à l'intérieur du pays","date":"1981-04-11","newspaper":"Fraternité Matin","country":"Côte d'Ivoire","type":"articles"}]},{"name":"Akoupé","lat":6.3811111111111,"lng":-3.8872222222222,"country":"Côte d'Ivoire","articleCount":1,"articles":[{"id":"67843","title":"L'Association musulmane pour l'organisation du pèlerinage à la Mecque : tournée d'une délégation à l'intérieur du pays","date":"1981-04-11","newspaper":"Fraternité Matin","country":"Côte d'Ivoire","type":"articles"}]},{"name":"Muzdalifa","lat":21.3925,"lng":39.937777777778,"country":"Saudi Arabia","articleCount":1,"articles":[{"id":"67874","title":"Pèlerinage à La Mecque. Mina : la ville qui ne vit que pour le pèlerinage","date":"1980-09-22","newspaper":"Fraternité Matin","country":"Côte d'Ivoire","type":"articles"}]},{"name":"Kaaba","lat":21.4225,"lng":39.826167,"country":"Saudi Arabia","articleCount":1,"articles":[{"id":"67874","title":"Pèlerinage à La Mecque. Mina : la ville qui ne vit que pour le pèlerinage","date":"1980-09-22","newspaper":"Fraternité Matin","country":"Côte d'Ivoire","type":"articles"}]},{"name":"Dabou","lat":5.325556,"lng":-4.376667,"country":"Côte d'Ivoire","articleCount":1,"articles":[{"id":"67881","title":"L'Association pour l'organisation du pèlerinage à La Mecque : le comité tire les leçons du dernier pèlerinage à La Mecque","date":"1979-12-31","newspaper":"Fraternité Matin","country":"Côte d'Ivoire","type":"articles"}]},{"name":"Grand-Bassam","lat":5.2118,"lng":-3.73884,"country":"Côte d'Ivoire","articleCount":1,"articles":[{"id":"67881","title":"L'Association pour l'organisation du pèlerinage à La Mecque : le comité tire les leçons du dernier pèlerinage à La Mecque","date":"1979-12-31","newspaper":"Fraternité Matin","country":"Côte d'Ivoire","type":"articles"}]},{"name":"Attécoubé","lat":5.333333,"lng":-4.033333,"country":"Côte d'Ivoire","articleCount":1,"articles":[{"id":"73744","title":"À deux jours de la fête de Tabaski : comment les populations abidjanaises se préparent","date":"2012-10-24","newspaper":"Le Jour Plus","country":"Côte d'Ivoire","type":"articles"}]},{"name":"Grande Mosquée d'Attécoubé","lat":0,"lng":0,"country":"Unknown","articleCount":1,"articles":[{"id":"73744","title":"À deux jours de la fête de Tabaski : comment les populations abidjanaises se préparent","date":"2012-10-24","newspaper":"Le Jour Plus","country":"Côte d'Ivoire","type":"articles"}]},{"name":"Abobo","lat":5.418889,"lng":-4.020556,"country":"Côte d'Ivoire","articleCount":1,"articles":[{"id":"73744","title":"À deux jours de la fête de Tabaski : comment les populations abidjanaises se préparent","date":"2012-10-24","newspaper":"Le Jour Plus","country":"Côte d'Ivoire","type":"articles"}]}]}