{"id":63493,"name":"Diabaté","type":"Personnes","stats":{"articleCount":3,"countries":["Burkina Faso","Côte d'Ivoire","Saudi Arabia"],"dateRange":{"first":"1983-04-28","last":"1998-04-04"}},"locations":[{"name":"La Mecque","lat":21.4225,"lng":39.826111,"country":"Saudi Arabia","articleCount":1,"articles":[{"id":"64919","title":"Pèlerinage à La Mecque : Arafat c'est lundi","date":"1998-04-04","newspaper":"Fraternité Matin","country":"Côte d'Ivoire","type":"articles"}]},{"name":"Mont Arafat","lat":21.354831,"lng":39.983886,"country":"Saudi Arabia","articleCount":1,"articles":[{"id":"64919","title":"Pèlerinage à La Mecque : Arafat c'est lundi","date":"1998-04-04","newspaper":"Fraternité Matin","country":"Côte d'Ivoire","type":"articles"}]},{"name":"Médine","lat":24.46861,"lng":39.61417,"country":"Saudi Arabia","articleCount":1,"articles":[{"id":"64919","title":"Pèlerinage à La Mecque : Arafat c'est lundi","date":"1998-04-04","newspaper":"Fraternité Matin","country":"Côte d'Ivoire","type":"articles"}]},{"name":"Côte d'Ivoire","lat":8.0,"lng":-5.5,"country":"Côte d'Ivoire","articleCount":1,"articles":[{"id":"64919","title":"Pèlerinage à La Mecque : Arafat c'est lundi","date":"1998-04-04","newspaper":"Fraternité Matin","country":"Côte d'Ivoire","type":"articles"}]},{"name":"Mina","lat":21.413333,"lng":39.893333,"country":"Saudi Arabia","articleCount":1,"articles":[{"id":"64919","title":"Pèlerinage à La Mecque : Arafat c'est lundi","date":"1998-04-04","newspaper":"Fraternité Matin","country":"Côte d'Ivoire","type":"articles"}]},{"name":"Kaaba","lat":21.4225,"lng":39.826167,"country":"Saudi Arabia","articleCount":1,"articles":[{"id":"64919","title":"Pèlerinage à La Mecque : Arafat c'est lundi","date":"1998-04-04","newspaper":"Fraternité Matin","country":"Côte d'Ivoire","type":"articles"}]},{"name":"Bondoukou","lat":8.04,"lng":-2.8,"country":"Côte d'Ivoire","articleCount":1,"articles":[{"id":"67998","title":"Tanda : une nouvelle mosquée en finition","date":"1983-04-28","newspaper":"Fraternité Matin","country":"Côte d'Ivoire","type":"articles"}]},{"name":"Abidjan","lat":5.35444,"lng":-4.00167,"country":"Côte d'Ivoire","articleCount":1,"articles":[{"id":"68237","title":"Tabaski demain : renouveler l'acte d'Abraham","date":"1989-07-13","newspaper":"Fraternité Matin","country":"Côte d'Ivoire","type":"articles"}]},{"name":"Abobo","lat":5.418889,"lng":-4.020556,"country":"Côte d'Ivoire","articleCount":1,"articles":[{"id":"68237","title":"Tabaski demain : renouveler l'acte d'Abraham","date":"1989-07-13","newspaper":"Fraternité Matin","country":"Côte d'Ivoire","type":"articles"}]},{"name":"Divo","lat":5.837222,"lng":-5.357222,"country":"Côte d'Ivoire","articleCount":1,"articles":[{"id":"68237","title":"Tabaski demain : renouveler l'acte d'Abraham","date":"1989-07-13","newspaper":"Fraternité Matin","country":"Côte d'Ivoire","type":"articles"}]},{"name":"Port-Bouët","lat":5.266667,"lng":-3.9,"country":"Côte d'Ivoire","articleCount":1,"articles":[{"id":"68237","title":"Tabaski demain : renouveler l'acte d'Abraham","date":"1989-07-13","newspaper":"Fraternité Matin","country":"Côte d'Ivoire","type":"articles"}]},{"name":"Bobo-Dioulasso","lat":11.17715,"lng":-4.2979,"country":"Burkina Faso","articleCount":1,"articles":[{"id":"68237","title":"Tabaski demain : renouveler l'acte d'Abraham","date":"1989-07-13","newspaper":"Fraternité Matin","country":"Côte d'Ivoire","type":"articles"}]}]}