{"id":65695,"name":"Moumouni Idrissou","type":"Personnes","stats":{"articleCount":4,"countries":["Palestine","Saudi Arabia","Togo"],"dateRange":{"first":"1970-01-29","last":"1980-09-01"}},"locations":[{"name":"Togo","lat":8.66667,"lng":1.08333,"country":"Togo","articleCount":3,"articles":[{"id":"28126","title":"Le président Eyadéma a reçu hier les membres du nouveau bureau de l’Union Musulmane du Togo","date":"1970-06-11","newspaper":"Togo-Presse","country":"Togo","type":"articles"},{"id":"65765","title":"El Hadj Fousséni Mama élu président de l'Union des Musulmans du Togo","date":"1970-05-05","newspaper":"Togo-Presse","country":"Togo","type":"articles"},{"id":"66238","title":"L'Union Musulmane du Togo a présenté hier au chef de l'Etat son nouveau bureau","date":"1970-01-29","newspaper":"Togo-Presse","country":"Togo","type":"articles"}]},{"name":"Lomé","lat":6.12874,"lng":1.22154,"country":"Togo","articleCount":2,"articles":[{"id":"25669","title":"Pèlerinage à la Mecque et aux lieux saints de l'Islam","date":"1980-09-01","newspaper":"La Nouvelle Marche","country":"Togo","type":"articles"},{"id":"66238","title":"L'Union Musulmane du Togo a présenté hier au chef de l'Etat son nouveau bureau","date":"1970-01-29","newspaper":"Togo-Presse","country":"Togo","type":"articles"}]},{"name":"Tchamba","lat":9.0333333333333,"lng":1.4166666666667,"country":"Togo","articleCount":1,"articles":[{"id":"25669","title":"Pèlerinage à la Mecque et aux lieux saints de l'Islam","date":"1980-09-01","newspaper":"La Nouvelle Marche","country":"Togo","type":"articles"}]},{"name":"Djeddah","lat":21.49012,"lng":39.18624,"country":"Saudi Arabia","articleCount":1,"articles":[{"id":"25669","title":"Pèlerinage à la Mecque et aux lieux saints de l'Islam","date":"1980-09-01","newspaper":"La Nouvelle Marche","country":"Togo","type":"articles"}]},{"name":"Palestine","lat":31.92157,"lng":35.20329,"country":"Palestine","articleCount":1,"articles":[{"id":"65765","title":"El Hadj Fousséni Mama élu président de l'Union des Musulmans du Togo","date":"1970-05-05","newspaper":"Togo-Presse","country":"Togo","type":"articles"}]}]}