{"id":67411,"name":"Bamouni Stanislas Baba","type":"Personnes","stats":{"articleCount":1,"countries":["Benin","Switzerland","Togo","United Arab Emirates"],"dateRange":{"first":"1998-01-23","last":"1998-01-23"}},"locations":[{"name":"Émirats arabes unis","lat":23.75,"lng":54.5,"country":"United Arab Emirates","articleCount":1,"articles":[{"id":"29317","title":"Des hommes d'affaires koweitiens et M. Franz Weber à Lomé II","date":"1998-01-23","newspaper":"Togo-Presse","country":"Togo","type":"articles"}]},{"name":"Lomé","lat":6.12874,"lng":1.22154,"country":"Togo","articleCount":1,"articles":[{"id":"29317","title":"Des hommes d'affaires koweitiens et M. Franz Weber à Lomé II","date":"1998-01-23","newspaper":"Togo-Presse","country":"Togo","type":"articles"}]},{"name":"Pya","lat":9.65194444,"lng":1.13638889,"country":"Togo","articleCount":1,"articles":[{"id":"29317","title":"Des hommes d'affaires koweitiens et M. Franz Weber à Lomé II","date":"1998-01-23","newspaper":"Togo-Presse","country":"Togo","type":"articles"}]},{"name":"Togo","lat":8.66667,"lng":1.08333,"country":"Togo","articleCount":1,"articles":[{"id":"29317","title":"Des hommes d'affaires koweitiens et M. Franz Weber à Lomé II","date":"1998-01-23","newspaper":"Togo-Presse","country":"Togo","type":"articles"}]},{"name":"Suisse","lat":47.00016,"lng":8.01427,"country":"Switzerland","articleCount":1,"articles":[{"id":"29317","title":"Des hommes d'affaires koweitiens et M. Franz Weber à Lomé II","date":"1998-01-23","newspaper":"Togo-Presse","country":"Togo","type":"articles"}]},{"name":"Dubaï","lat":25.269722,"lng":55.309444,"country":"Benin","articleCount":1,"articles":[{"id":"29317","title":"Des hommes d'affaires koweitiens et M. Franz Weber à Lomé II","date":"1998-01-23","newspaper":"Togo-Presse","country":"Togo","type":"articles"}]}]}