{"id":71502,"name":"Franck A. Kouassi","type":"Personnes","stats":{"articleCount":2,"countries":["Côte d'Ivoire"],"dateRange":{"first":"1998-01-30","last":"1998-07-09"}},"locations":[{"name":"Côte d'Ivoire","lat":8.0,"lng":-5.5,"country":"Côte d'Ivoire","articleCount":2,"articles":[{"id":"71514","title":"Menacé de déguerpissement : \"On veut déloger les musulmans pour faire plaisir aux chrétiens\" dénonce Abdoulaye Koné, secrétaire de section PDCI de Gbon","date":"1998-07-09","newspaper":"Le Jour","country":"Côte d'Ivoire","type":"articles"},{"id":"71521","title":"Le Ramadan dans la confusion","date":"1998-01-30","newspaper":"Le Jour","country":"Côte d'Ivoire","type":"articles"}]},{"name":"Adjamé","lat":5.3648,"lng":-4.02366,"country":"Côte d'Ivoire","articleCount":1,"articles":[{"id":"71514","title":"Menacé de déguerpissement : \"On veut déloger les musulmans pour faire plaisir aux chrétiens\" dénonce Abdoulaye Koné, secrétaire de section PDCI de Gbon","date":"1998-07-09","newspaper":"Le Jour","country":"Côte d'Ivoire","type":"articles"}]},{"name":"Yamoussoukro","lat":6.816111,"lng":-5.274167,"country":"Côte d'Ivoire","articleCount":1,"articles":[{"id":"71514","title":"Menacé de déguerpissement : \"On veut déloger les musulmans pour faire plaisir aux chrétiens\" dénonce Abdoulaye Koné, secrétaire de section PDCI de Gbon","date":"1998-07-09","newspaper":"Le Jour","country":"Côte d'Ivoire","type":"articles"}]},{"name":"Man","lat":7.4125,"lng":-7.553611,"country":"Côte d'Ivoire","articleCount":1,"articles":[{"id":"71514","title":"Menacé de déguerpissement : \"On veut déloger les musulmans pour faire plaisir aux chrétiens\" dénonce Abdoulaye Koné, secrétaire de section PDCI de Gbon","date":"1998-07-09","newspaper":"Le Jour","country":"Côte d'Ivoire","type":"articles"}]},{"name":"Abidjan-Plateau","lat":5.32549,"lng":-4.02014,"country":"Côte d'Ivoire","articleCount":1,"articles":[{"id":"71514","title":"Menacé de déguerpissement : \"On veut déloger les musulmans pour faire plaisir aux chrétiens\" dénonce Abdoulaye Koné, secrétaire de section PDCI de Gbon","date":"1998-07-09","newspaper":"Le Jour","country":"Côte d'Ivoire","type":"articles"}]},{"name":"Gbon","lat":9.8333333333333,"lng":-6.45,"country":"Côte d'Ivoire","articleCount":1,"articles":[{"id":"71514","title":"Menacé de déguerpissement : \"On veut déloger les musulmans pour faire plaisir aux chrétiens\" dénonce Abdoulaye Koné, secrétaire de section PDCI de Gbon","date":"1998-07-09","newspaper":"Le Jour","country":"Côte d'Ivoire","type":"articles"}]},{"name":"Korhogo","lat":9.457778,"lng":-5.629444,"country":"Côte d'Ivoire","articleCount":1,"articles":[{"id":"71521","title":"Le Ramadan dans la confusion","date":"1998-01-30","newspaper":"Le Jour","country":"Côte d'Ivoire","type":"articles"}]},{"name":"Bonon","lat":6.9333333333333,"lng":-6.05,"country":"Côte d'Ivoire","articleCount":1,"articles":[{"id":"71521","title":"Le Ramadan dans la confusion","date":"1998-01-30","newspaper":"Le Jour","country":"Côte d'Ivoire","type":"articles"}]}]}