{"id":940,"name":"Abdramane Sylla","type":"Personnes","stats":{"articleCount":1,"countries":["Burkina Faso","Côte d'Ivoire","Guinea","Mali"],"dateRange":{"first":"2012-08-01","last":"2012-08-01"}},"locations":[{"name":"Bobo-Dioulasso","lat":11.17715,"lng":-4.2979,"country":"Burkina Faso","articleCount":1,"articles":[{"id":"3584","title":"Communauté des « Pieds nus » de Bobo-Dioulasso : les soldats de l'islam débarquent sur la « Base Bilal »","date":"2012-08-01","newspaper":"Sidwaya","country":"Burkina Faso","type":"articles"}]},{"name":"Ouagadougou","lat":12.36566,"lng":-1.53388,"country":"Burkina Faso","articleCount":1,"articles":[{"id":"3584","title":"Communauté des « Pieds nus » de Bobo-Dioulasso : les soldats de l'islam débarquent sur la « Base Bilal »","date":"2012-08-01","newspaper":"Sidwaya","country":"Burkina Faso","type":"articles"}]},{"name":"Mali","lat":18.0,"lng":-2.0,"country":"Mali","articleCount":1,"articles":[{"id":"3584","title":"Communauté des « Pieds nus » de Bobo-Dioulasso : les soldats de l'islam débarquent sur la « Base Bilal »","date":"2012-08-01","newspaper":"Sidwaya","country":"Burkina Faso","type":"articles"}]},{"name":"Sya","lat":0,"lng":0,"country":"Unknown","articleCount":1,"articles":[{"id":"3584","title":"Communauté des « Pieds nus » de Bobo-Dioulasso : les soldats de l'islam débarquent sur la « Base Bilal »","date":"2012-08-01","newspaper":"Sidwaya","country":"Burkina Faso","type":"articles"}]},{"name":"Comoé","lat":10.633333333333,"lng":-4.75,"country":"Burkina Faso","articleCount":1,"articles":[{"id":"3584","title":"Communauté des « Pieds nus » de Bobo-Dioulasso : les soldats de l'islam débarquent sur la « Base Bilal »","date":"2012-08-01","newspaper":"Sidwaya","country":"Burkina Faso","type":"articles"}]},{"name":"Bamako","lat":12.645833,"lng":-7.992222,"country":"Mali","articleCount":1,"articles":[{"id":"3584","title":"Communauté des « Pieds nus » de Bobo-Dioulasso : les soldats de l'islam débarquent sur la « Base Bilal »","date":"2012-08-01","newspaper":"Sidwaya","country":"Burkina Faso","type":"articles"}]},{"name":"Sikasso","lat":11.199722222222,"lng":-7.0969444444444,"country":"Mali","articleCount":1,"articles":[{"id":"3584","title":"Communauté des « Pieds nus » de Bobo-Dioulasso : les soldats de l'islam débarquent sur la « Base Bilal »","date":"2012-08-01","newspaper":"Sidwaya","country":"Burkina Faso","type":"articles"}]},{"name":"Gao","lat":16.266666666667,"lng":-0.05,"country":"Mali","articleCount":1,"articles":[{"id":"3584","title":"Communauté des « Pieds nus » de Bobo-Dioulasso : les soldats de l'islam débarquent sur la « Base Bilal »","date":"2012-08-01","newspaper":"Sidwaya","country":"Burkina Faso","type":"articles"}]},{"name":"Guinée","lat":10.83333,"lng":-10.66667,"country":"Guinea","articleCount":1,"articles":[{"id":"3584","title":"Communauté des « Pieds nus » de Bobo-Dioulasso : les soldats de l'islam débarquent sur la « Base Bilal »","date":"2012-08-01","newspaper":"Sidwaya","country":"Burkina Faso","type":"articles"}]},{"name":"Côte d'Ivoire","lat":8.0,"lng":-5.5,"country":"Côte d'Ivoire","articleCount":1,"articles":[{"id":"3584","title":"Communauté des « Pieds nus » de Bobo-Dioulasso : les soldats de l'islam débarquent sur la « Base Bilal »","date":"2012-08-01","newspaper":"Sidwaya","country":"Burkina Faso","type":"articles"}]}]}