{"id":948,"name":"Aboubacar Nakro","type":"Personnes","stats":{"articleCount":3,"countries":["Benin","Burkina Faso","Saudi Arabia"],"dateRange":{"first":"1992-04-02","last":"2010-01"}},"locations":[{"name":"Ouagadougou","lat":12.36566,"lng":-1.53388,"country":"Burkina Faso","articleCount":3,"articles":[{"id":"5874","title":"Religion : l'Islam et la mendité (suite et fin)","date":"1992-04-03","newspaper":"L'Observateur Paalga","country":"Burkina Faso","type":"articles"},{"id":"8121","title":"Religion : l'Islam et la mendicité","date":"1992-04-02","newspaper":"L'Observateur Paalga","country":"Burkina Faso","type":"articles"},{"id":"12078","title":"Le CERFIste #10","date":"2010-01","newspaper":"Le CERFIste","country":"Burkina Faso","type":"publications"}]},{"name":"Burkina Faso","lat":12.5,"lng":-1.66667,"country":"Burkina Faso","articleCount":2,"articles":[{"id":"5874","title":"Religion : l'Islam et la mendité (suite et fin)","date":"1992-04-03","newspaper":"L'Observateur Paalga","country":"Burkina Faso","type":"articles"},{"id":"8121","title":"Religion : l'Islam et la mendicité","date":"1992-04-02","newspaper":"L'Observateur Paalga","country":"Burkina Faso","type":"articles"}]},{"name":"Beyrouth","lat":33.886944,"lng":35.513056,"country":"Benin","articleCount":1,"articles":[{"id":"5874","title":"Religion : l'Islam et la mendité (suite et fin)","date":"1992-04-03","newspaper":"L'Observateur Paalga","country":"Burkina Faso","type":"articles"}]},{"name":"Ramatoulaye","lat":13.633333,"lng":-2.316667,"country":"Burkina Faso","articleCount":1,"articles":[{"id":"8121","title":"Religion : l'Islam et la mendicité","date":"1992-04-02","newspaper":"L'Observateur Paalga","country":"Burkina Faso","type":"articles"}]},{"name":"Médine","lat":24.46861,"lng":39.61417,"country":"Saudi Arabia","articleCount":1,"articles":[{"id":"8121","title":"Religion : l'Islam et la mendicité","date":"1992-04-02","newspaper":"L'Observateur Paalga","country":"Burkina Faso","type":"articles"}]},{"name":"La Mecque","lat":21.4225,"lng":39.826111,"country":"Saudi Arabia","articleCount":1,"articles":[{"id":"8121","title":"Religion : l'Islam et la mendicité","date":"1992-04-02","newspaper":"L'Observateur Paalga","country":"Burkina Faso","type":"articles"}]},{"name":"Bobo-Dioulasso","lat":11.17715,"lng":-4.2979,"country":"Burkina Faso","articleCount":1,"articles":[{"id":"12078","title":"Le CERFIste #10","date":"2010-01","newspaper":"Le CERFIste","country":"Burkina Faso","type":"publications"}]},{"name":"Fada N'Gourma","lat":12.06157,"lng":0.35843,"country":"Burkina Faso","articleCount":1,"articles":[{"id":"12078","title":"Le CERFIste #10","date":"2010-01","newspaper":"Le CERFIste","country":"Burkina Faso","type":"publications"}]},{"name":"Kaya","lat":13.09167,"lng":-1.08444,"country":"Burkina Faso","articleCount":1,"articles":[{"id":"12078","title":"Le CERFIste #10","date":"2010-01","newspaper":"Le CERFIste","country":"Burkina Faso","type":"publications"}]},{"name":"Centre culturel arabe libyen","lat":0,"lng":0,"country":"Unknown","articleCount":1,"articles":[{"id":"12078","title":"Le CERFIste #10","date":"2010-01","newspaper":"Le CERFIste","country":"Burkina Faso","type":"publications"}]}]}