{"id":26323,"name":"Union de la Jeunesse Islamique du Togo","type":"Organisations","stats":{"articleCount":4,"countries":["Togo"],"dateRange":{"first":"1999-08-24","last":"2008-09-24"}},"locations":[{"name":"Togo","lat":8.66667,"lng":1.08333,"country":"Togo","articleCount":4,"articles":[{"id":"28736","title":"L'UJITO a tenu son 4e congrès statutaire le week-end","date":"2002-08-07","newspaper":"Togo-Presse","country":"Togo","type":"articles"},{"id":"28807","title":"Assoli : la jeunesse musulmane sensibilisée sur le trafic des enfants à Bafilo","date":"2001-08-08","newspaper":"Togo-Presse","country":"Togo","type":"articles"},{"id":"29396","title":"Deux associations de jeunesse musulmane fusionnent","date":"1999-08-24","newspaper":"Togo-Presse","country":"Togo","type":"articles"},{"id":"65771","title":"La jeunesse islamique a tenu sa réunion annuelle à Bassar","date":"2008-09-24","newspaper":"Togo-Presse","country":"Togo","type":"articles"}]},{"name":"Lomé","lat":6.12874,"lng":1.22154,"country":"Togo","articleCount":2,"articles":[{"id":"28736","title":"L'UJITO a tenu son 4e congrès statutaire le week-end","date":"2002-08-07","newspaper":"Togo-Presse","country":"Togo","type":"articles"},{"id":"29396","title":"Deux associations de jeunesse musulmane fusionnent","date":"1999-08-24","newspaper":"Togo-Presse","country":"Togo","type":"articles"}]},{"name":"Grande mosquée de Lomé","lat":0,"lng":0,"country":"Unknown","articleCount":1,"articles":[{"id":"28736","title":"L'UJITO a tenu son 4e congrès statutaire le week-end","date":"2002-08-07","newspaper":"Togo-Presse","country":"Togo","type":"articles"}]},{"name":"Assoli","lat":9.35,"lng":1.2666666666667,"country":"Togo","articleCount":1,"articles":[{"id":"28807","title":"Assoli : la jeunesse musulmane sensibilisée sur le trafic des enfants à Bafilo","date":"2001-08-08","newspaper":"Togo-Presse","country":"Togo","type":"articles"}]},{"name":"Bafilo","lat":9.35,"lng":1.26666667,"country":"Togo","articleCount":1,"articles":[{"id":"28807","title":"Assoli : la jeunesse musulmane sensibilisée sur le trafic des enfants à Bafilo","date":"2001-08-08","newspaper":"Togo-Presse","country":"Togo","type":"articles"}]},{"name":"Tokoin","lat":6.15,"lng":1.216667,"country":"Togo","articleCount":1,"articles":[{"id":"29396","title":"Deux associations de jeunesse musulmane fusionnent","date":"1999-08-24","newspaper":"Togo-Presse","country":"Togo","type":"articles"}]},{"name":"Bassar","lat":9.25,"lng":0.78333333333333,"country":"Togo","articleCount":1,"articles":[{"id":"65771","title":"La jeunesse islamique a tenu sa réunion annuelle à Bassar","date":"2008-09-24","newspaper":"Togo-Presse","country":"Togo","type":"articles"}]}]}