{"id":613,"name":"Association des Jeunes Musulmans Arabophones et Francophones","type":"Organisations","stats":{"articleCount":1,"countries":["Burkina Faso","Côte d'Ivoire","Ghana","Israel","Japan","Palestine","Saudi Arabia"],"dateRange":{"first":"2015-04-05","last":"2015-04-05"}},"locations":[{"name":"Bobo-Dioulasso","lat":11.17715,"lng":-4.2979,"country":"Burkina Faso","articleCount":1,"articles":[{"id":"10569","title":"L'Autre Regard #25","date":"2015-04-05","newspaper":"L'Autre Regard","country":"Burkina Faso","type":"publications"}]},{"name":"Djibo","lat":14.12526,"lng":-1.6249,"country":"Burkina Faso","articleCount":1,"articles":[{"id":"10569","title":"L'Autre Regard #25","date":"2015-04-05","newspaper":"L'Autre Regard","country":"Burkina Faso","type":"publications"}]},{"name":"Kaya","lat":13.09167,"lng":-1.08444,"country":"Burkina Faso","articleCount":1,"articles":[{"id":"10569","title":"L'Autre Regard #25","date":"2015-04-05","newspaper":"L'Autre Regard","country":"Burkina Faso","type":"publications"}]},{"name":"Koudougou","lat":12.25263,"lng":-2.36272,"country":"Burkina Faso","articleCount":1,"articles":[{"id":"10569","title":"L'Autre Regard #25","date":"2015-04-05","newspaper":"L'Autre Regard","country":"Burkina Faso","type":"publications"}]},{"name":"Orodara","lat":10.98568,"lng":-4.92612,"country":"Burkina Faso","articleCount":1,"articles":[{"id":"10569","title":"L'Autre Regard #25","date":"2015-04-05","newspaper":"L'Autre Regard","country":"Burkina Faso","type":"publications"}]},{"name":"Ouagadougou","lat":12.36566,"lng":-1.53388,"country":"Burkina Faso","articleCount":1,"articles":[{"id":"10569","title":"L'Autre Regard #25","date":"2015-04-05","newspaper":"L'Autre Regard","country":"Burkina Faso","type":"publications"}]},{"name":"Ouahigouya","lat":13.58278,"lng":-2.42158,"country":"Burkina Faso","articleCount":1,"articles":[{"id":"10569","title":"L'Autre Regard #25","date":"2015-04-05","newspaper":"L'Autre Regard","country":"Burkina Faso","type":"publications"}]},{"name":"Tenkodogo","lat":11.78,"lng":-0.36972,"country":"Burkina Faso","articleCount":1,"articles":[{"id":"10569","title":"L'Autre Regard #25","date":"2015-04-05","newspaper":"L'Autre Regard","country":"Burkina Faso","type":"publications"}]},{"name":"Israël","lat":31.5,"lng":34.75,"country":"Israel","articleCount":1,"articles":[{"id":"10569","title":"L'Autre Regard #25","date":"2015-04-05","newspaper":"L'Autre Regard","country":"Burkina Faso","type":"publications"}]},{"name":"Palestine","lat":31.92157,"lng":35.20329,"country":"Palestine","articleCount":1,"articles":[{"id":"10569","title":"L'Autre Regard #25","date":"2015-04-05","newspaper":"L'Autre Regard","country":"Burkina Faso","type":"publications"}]},{"name":"Japon","lat":35.68536,"lng":139.75309,"country":"Japan","articleCount":1,"articles":[{"id":"10569","title":"L'Autre Regard #25","date":"2015-04-05","newspaper":"L'Autre Regard","country":"Burkina Faso","type":"publications"}]},{"name":"Abidjan","lat":5.35444,"lng":-4.00167,"country":"Côte d'Ivoire","articleCount":1,"articles":[{"id":"10569","title":"L'Autre Regard #25","date":"2015-04-05","newspaper":"L'Autre Regard","country":"Burkina Faso","type":"publications"}]},{"name":"Ghana","lat":8.1,"lng":-1.2,"country":"Ghana","articleCount":1,"articles":[{"id":"10569","title":"L'Autre Regard #25","date":"2015-04-05","newspaper":"L'Autre Regard","country":"Burkina Faso","type":"publications"}]},{"name":"Médine","lat":24.46861,"lng":39.61417,"country":"Saudi Arabia","articleCount":1,"articles":[{"id":"10569","title":"L'Autre Regard #25","date":"2015-04-05","newspaper":"L'Autre Regard","country":"Burkina Faso","type":"publications"}]}]}