{"id":73320,"name":"Jeunesse du Rassemblement du Peuple Togolais","type":"Organisations","stats":{"articleCount":7,"countries":["Benin","France","Libya","Togo"],"dateRange":{"first":"1971-04-23","last":"2009-11-16"}},"locations":[{"name":"Togo","lat":8.66667,"lng":1.08333,"country":"Togo","articleCount":7,"articles":[{"id":"28208","title":"Bafilo : pose de la première pierre de la nouvelle mosquée de la ville","date":"1979-12-26","newspaper":"Togo-Presse","country":"Togo","type":"articles"},{"id":"28918","title":"Célébration de nos 18 ans d'indépendance : le Guide a assisté aux offices religieux et à un pique-nique monstre avec la jeunesse de Lomé","date":"1978-04-28","newspaper":"Togo-Presse","country":"Togo","type":"articles"},{"id":"29487","title":"Une prière à la Mosquée marquera aujourd'hui le début de la célébration du 11e anniversaire de l'Indépendance","date":"1971-04-23","newspaper":"Togo-Presse","country":"Togo","type":"articles"},{"id":"29488","title":"M. Boroze : bientôt des sous-sections de la JRPT dans nos établissements secondaires et supérieurs","date":"1972-03-18","newspaper":"Togo-Presse","country":"Togo","type":"articles"},{"id":"29490","title":"Les mouvements et associations de jeunesse autres que la JRPT sont dissous au Togo","date":"1972-02-12","newspaper":"Togo-Presse","country":"Togo","type":"articles"},{"id":"29528","title":"La JRPT a offert samedi une réception en l'honneur de la délégation libyenne en visite chez nous","date":"1973-06-25","newspaper":"Togo-Presse","country":"Togo","type":"articles"},{"id":"66078","title":"Des offices religieux à Kara pour une élection présidentielle apaisée","date":"2009-11-16","newspaper":"Togo-Presse","country":"Togo","type":"articles"}]},{"name":"Lomé","lat":6.12874,"lng":1.22154,"country":"Togo","articleCount":3,"articles":[{"id":"28918","title":"Célébration de nos 18 ans d'indépendance : le Guide a assisté aux offices religieux et à un pique-nique monstre avec la jeunesse de Lomé","date":"1978-04-28","newspaper":"Togo-Presse","country":"Togo","type":"articles"},{"id":"29488","title":"M. Boroze : bientôt des sous-sections de la JRPT dans nos établissements secondaires et supérieurs","date":"1972-03-18","newspaper":"Togo-Presse","country":"Togo","type":"articles"},{"id":"29528","title":"La JRPT a offert samedi une réception en l'honneur de la délégation libyenne en visite chez nous","date":"1973-06-25","newspaper":"Togo-Presse","country":"Togo","type":"articles"}]},{"name":"Monument de l'Indépendance","lat":6.13,"lng":1.216,"country":"Togo","articleCount":2,"articles":[{"id":"28918","title":"Célébration de nos 18 ans d'indépendance : le Guide a assisté aux offices religieux et à un pique-nique monstre avec la jeunesse de Lomé","date":"1978-04-28","newspaper":"Togo-Presse","country":"Togo","type":"articles"},{"id":"29487","title":"Une prière à la Mosquée marquera aujourd'hui le début de la célébration du 11e anniversaire de l'Indépendance","date":"1971-04-23","newspaper":"Togo-Presse","country":"Togo","type":"articles"}]},{"name":"Bafilo","lat":9.35,"lng":1.26666667,"country":"Togo","articleCount":1,"articles":[{"id":"28208","title":"Bafilo : pose de la première pierre de la nouvelle mosquée de la ville","date":"1979-12-26","newspaper":"Togo-Presse","country":"Togo","type":"articles"}]},{"name":"Sarakawa","lat":9.6218425,"lng":0.9866713,"country":"Togo","articleCount":1,"articles":[{"id":"28918","title":"Célébration de nos 18 ans d'indépendance : le Guide a assisté aux offices religieux et à un pique-nique monstre avec la jeunesse de Lomé","date":"1978-04-28","newspaper":"Togo-Presse","country":"Togo","type":"articles"}]},{"name":"Palais des congrès de Lomé","lat":6.13059,"lng":1.21739,"country":"Togo","articleCount":1,"articles":[{"id":"28918","title":"Célébration de nos 18 ans d'indépendance : le Guide a assisté aux offices religieux et à un pique-nique monstre avec la jeunesse de Lomé","date":"1978-04-28","newspaper":"Togo-Presse","country":"Togo","type":"articles"}]},{"name":"France","lat":46.0,"lng":2.0,"country":"France","articleCount":1,"articles":[{"id":"29487","title":"Une prière à la Mosquée marquera aujourd'hui le début de la célébration du 11e anniversaire de l'Indépendance","date":"1971-04-23","newspaper":"Togo-Presse","country":"Togo","type":"articles"}]},{"name":"Atakpamé","lat":7.5269444444444,"lng":1.1266666666667,"country":"Togo","articleCount":1,"articles":[{"id":"29490","title":"Les mouvements et associations de jeunesse autres que la JRPT sont dissous au Togo","date":"1972-02-12","newspaper":"Togo-Presse","country":"Togo","type":"articles"}]},{"name":"Badou","lat":7.584327,"lng":0.606651,"country":"Togo","articleCount":1,"articles":[{"id":"29490","title":"Les mouvements et associations de jeunesse autres que la JRPT sont dissous au Togo","date":"1972-02-12","newspaper":"Togo-Presse","country":"Togo","type":"articles"}]},{"name":"Mono","lat":6.6333333333333,"lng":1.7166666666667,"country":"Benin","articleCount":1,"articles":[{"id":"29490","title":"Les mouvements et associations de jeunesse autres que la JRPT sont dissous au Togo","date":"1972-02-12","newspaper":"Togo-Presse","country":"Togo","type":"articles"}]},{"name":"Pagouda","lat":9.75,"lng":1.316667,"country":"Togo","articleCount":1,"articles":[{"id":"29490","title":"Les mouvements et associations de jeunesse autres que la JRPT sont dissous au Togo","date":"1972-02-12","newspaper":"Togo-Presse","country":"Togo","type":"articles"}]},{"name":"Tripoli","lat":32.88743,"lng":13.18733,"country":"Libya","articleCount":1,"articles":[{"id":"29528","title":"La JRPT a offert samedi une réception en l'honneur de la délégation libyenne en visite chez nous","date":"1973-06-25","newspaper":"Togo-Presse","country":"Togo","type":"articles"}]},{"name":"Kpalimé","lat":6.91,"lng":0.62805555555556,"country":"Togo","articleCount":1,"articles":[{"id":"29528","title":"La JRPT a offert samedi une réception en l'honneur de la délégation libyenne en visite chez nous","date":"1973-06-25","newspaper":"Togo-Presse","country":"Togo","type":"articles"}]},{"name":"Libye","lat":28.0,"lng":17.0,"country":"Libya","articleCount":1,"articles":[{"id":"29528","title":"La JRPT a offert samedi une réception en l'honneur de la délégation libyenne en visite chez nous","date":"1973-06-25","newspaper":"Togo-Presse","country":"Togo","type":"articles"}]},{"name":"Kara","lat":9.5488888888889,"lng":1.1905555555556,"country":"Togo","articleCount":1,"articles":[{"id":"66078","title":"Des offices religieux à Kara pour une élection présidentielle apaisée","date":"2009-11-16","newspaper":"Togo-Presse","country":"Togo","type":"articles"}]},{"name":"Kozah","lat":9.583333,"lng":1.166667,"country":"Togo","articleCount":1,"articles":[{"id":"66078","title":"Des offices religieux à Kara pour une élection présidentielle apaisée","date":"2009-11-16","newspaper":"Togo-Presse","country":"Togo","type":"articles"}]}]}