{"id":778,"name":"Association Islamique et Culturelle pour le Développement","type":"Organisations","stats":{"articleCount":2,"countries":["Benin","Togo"],"dateRange":{"first":"2000-09-18","last":"2001-09-17"}},"locations":[{"name":"Bénin","lat":9.5,"lng":2.25,"country":"Benin","articleCount":2,"articles":[{"id":"7199","title":"Assemblée générale constitutive de l’AICD-Zoumontchi-Bénin : une association pour favoriser la fraternité et la solidarité entre musulmans du Bénin","date":"2000-09-18","newspaper":"La Nation","country":"Benin","type":"articles"},{"id":"8830","title":"AICD-Zoumontchi : El-Hadj Daouda Lawal pour le bien-être de la communauté musulmane","date":"2001-09-17","newspaper":"La Nation","country":"Benin","type":"articles"}]},{"name":"Aplahoué","lat":6.93333,"lng":1.68333,"country":"Benin","articleCount":1,"articles":[{"id":"8830","title":"AICD-Zoumontchi : El-Hadj Daouda Lawal pour le bien-être de la communauté musulmane","date":"2001-09-17","newspaper":"La Nation","country":"Benin","type":"articles"}]},{"name":"Abomey","lat":7.18286,"lng":1.99119,"country":"Benin","articleCount":1,"articles":[{"id":"8830","title":"AICD-Zoumontchi : El-Hadj Daouda Lawal pour le bien-être de la communauté musulmane","date":"2001-09-17","newspaper":"La Nation","country":"Benin","type":"articles"}]},{"name":"Bohicon","lat":7.17826,"lng":2.0667,"country":"Benin","articleCount":1,"articles":[{"id":"8830","title":"AICD-Zoumontchi : El-Hadj Daouda Lawal pour le bien-être de la communauté musulmane","date":"2001-09-17","newspaper":"La Nation","country":"Benin","type":"articles"}]},{"name":"Cotonou","lat":6.36536,"lng":2.41833,"country":"Benin","articleCount":1,"articles":[{"id":"8830","title":"AICD-Zoumontchi : El-Hadj Daouda Lawal pour le bien-être de la communauté musulmane","date":"2001-09-17","newspaper":"La Nation","country":"Benin","type":"articles"}]},{"name":"Djougou","lat":9.70853,"lng":1.66598,"country":"Benin","articleCount":1,"articles":[{"id":"8830","title":"AICD-Zoumontchi : El-Hadj Daouda Lawal pour le bien-être de la communauté musulmane","date":"2001-09-17","newspaper":"La Nation","country":"Benin","type":"articles"}]},{"name":"Couffo","lat":6.961944,"lng":1.801667,"country":"Benin","articleCount":1,"articles":[{"id":"8830","title":"AICD-Zoumontchi : El-Hadj Daouda Lawal pour le bien-être de la communauté musulmane","date":"2001-09-17","newspaper":"La Nation","country":"Benin","type":"articles"}]},{"name":"Borgou","lat":10.74821385974019,"lng":0.6196353130056622,"country":"Togo","articleCount":1,"articles":[{"id":"8830","title":"AICD-Zoumontchi : El-Hadj Daouda Lawal pour le bien-être de la communauté musulmane","date":"2001-09-17","newspaper":"La Nation","country":"Benin","type":"articles"}]},{"name":"Alibori","lat":11.128611,"lng":2.936944,"country":"Benin","articleCount":1,"articles":[{"id":"8830","title":"AICD-Zoumontchi : El-Hadj Daouda Lawal pour le bien-être de la communauté musulmane","date":"2001-09-17","newspaper":"La Nation","country":"Benin","type":"articles"}]},{"name":"Donga","lat":9.7,"lng":1.666667,"country":"Benin","articleCount":1,"articles":[{"id":"8830","title":"AICD-Zoumontchi : El-Hadj Daouda Lawal pour le bien-être de la communauté musulmane","date":"2001-09-17","newspaper":"La Nation","country":"Benin","type":"articles"}]},{"name":"Atacora","lat":10.3,"lng":1.366667,"country":"Benin","articleCount":1,"articles":[{"id":"8830","title":"AICD-Zoumontchi : El-Hadj Daouda Lawal pour le bien-être de la communauté musulmane","date":"2001-09-17","newspaper":"La Nation","country":"Benin","type":"articles"}]},{"name":"Nikki","lat":9.94009,"lng":3.21075,"country":"Benin","articleCount":1,"articles":[{"id":"8830","title":"AICD-Zoumontchi : El-Hadj Daouda Lawal pour le bien-être de la communauté musulmane","date":"2001-09-17","newspaper":"La Nation","country":"Benin","type":"articles"}]}]}