{"id":785,"name":"Majority Moubarak Islam","type":"Organisations","stats":{"articleCount":2,"countries":["Benin","Saudi Arabia"],"dateRange":{"first":"1986-03-25","last":"1986-05-05"}},"locations":[{"name":"Porto-Novo","lat":6.49646,"lng":2.60359,"country":"Benin","articleCount":2,"articles":[{"id":"6919","title":"Intronisation du chef spirituel de la deuxième mosquée centrale de Porto-Novo","date":"1986-03-25","newspaper":"Ehuzu","country":"Benin","type":"articles"},{"id":"6922","title":"L'Association Majority-Moubarak-Islam a fêté ses 36 ans","date":"1986-05-05","newspaper":"Ehuzu","country":"Benin","type":"articles"}]},{"name":"Mosquée centrale de Porto-Novo","lat":6.470333,"lng":2.626611,"country":"Benin","articleCount":1,"articles":[{"id":"6919","title":"Intronisation du chef spirituel de la deuxième mosquée centrale de Porto-Novo","date":"1986-03-25","newspaper":"Ehuzu","country":"Benin","type":"articles"}]},{"name":"Ouémé","lat":6.5,"lng":2.6,"country":"Benin","articleCount":1,"articles":[{"id":"6919","title":"Intronisation du chef spirituel de la deuxième mosquée centrale de Porto-Novo","date":"1986-03-25","newspaper":"Ehuzu","country":"Benin","type":"articles"}]},{"name":"La Mecque","lat":21.4225,"lng":39.826111,"country":"Saudi Arabia","articleCount":1,"articles":[{"id":"6919","title":"Intronisation du chef spirituel de la deuxième mosquée centrale de Porto-Novo","date":"1986-03-25","newspaper":"Ehuzu","country":"Benin","type":"articles"}]},{"name":"Cotonou","lat":6.36536,"lng":2.41833,"country":"Benin","articleCount":1,"articles":[{"id":"6922","title":"L'Association Majority-Moubarak-Islam a fêté ses 36 ans","date":"1986-05-05","newspaper":"Ehuzu","country":"Benin","type":"articles"}]},{"name":"Ouidah","lat":6.36307,"lng":2.08506,"country":"Benin","articleCount":1,"articles":[{"id":"6922","title":"L'Association Majority-Moubarak-Islam a fêté ses 36 ans","date":"1986-05-05","newspaper":"Ehuzu","country":"Benin","type":"articles"}]},{"name":"Bénin","lat":9.5,"lng":2.25,"country":"Benin","articleCount":1,"articles":[{"id":"6922","title":"L'Association Majority-Moubarak-Islam a fêté ses 36 ans","date":"1986-05-05","newspaper":"Ehuzu","country":"Benin","type":"articles"}]}]}