{"id":806,"name":"Fan Club de l'Imam Chakirou Amoussou","type":"Organisations","stats":{"articleCount":3,"countries":["Benin"],"dateRange":{"first":"2020-09-14","last":"2021-04-05"}},"locations":[{"name":"Bénin","lat":9.5,"lng":2.25,"country":"Benin","articleCount":2,"articles":[{"id":"9325","title":"Installation de coordination départementale du Zou-Collines : Facica dope le moral de sa troupe","date":"2020-10-01","newspaper":"Matin Libre","country":"Benin","type":"articles"},{"id":"75932","title":"Les jeunes du FACICA pour la réélection du président Patrice Talon dans le département du Plateau","date":"2020-09-14","newspaper":"Agence Bénin Presse","country":"Benin","type":"articles"}]},{"name":"Abomey-Calavi","lat":6.44852,"lng":2.35566,"country":"Benin","articleCount":1,"articles":[{"id":"4626","title":"Ambiance électorale : le Facica ratisse large dans l'Atlantique","date":"2021-04-05","newspaper":"La Nation","country":"Benin","type":"articles"}]},{"name":"Godomey","lat":6.38948,"lng":2.34581,"country":"Benin","articleCount":1,"articles":[{"id":"4626","title":"Ambiance électorale : le Facica ratisse large dans l'Atlantique","date":"2021-04-05","newspaper":"La Nation","country":"Benin","type":"articles"}]},{"name":"Zè","lat":0,"lng":0,"country":"Unknown","articleCount":1,"articles":[{"id":"4626","title":"Ambiance électorale : le Facica ratisse large dans l'Atlantique","date":"2021-04-05","newspaper":"La Nation","country":"Benin","type":"articles"}]},{"name":"Bohicon","lat":7.17826,"lng":2.0667,"country":"Benin","articleCount":1,"articles":[{"id":"9325","title":"Installation de coordination départementale du Zou-Collines : Facica dope le moral de sa troupe","date":"2020-10-01","newspaper":"Matin Libre","country":"Benin","type":"articles"}]},{"name":"Savé","lat":8.03424,"lng":2.4866,"country":"Benin","articleCount":1,"articles":[{"id":"9325","title":"Installation de coordination départementale du Zou-Collines : Facica dope le moral de sa troupe","date":"2020-10-01","newspaper":"Matin Libre","country":"Benin","type":"articles"}]},{"name":"Sakété","lat":6.73618,"lng":2.65866,"country":"Benin","articleCount":1,"articles":[{"id":"75932","title":"Les jeunes du FACICA pour la réélection du président Patrice Talon dans le département du Plateau","date":"2020-09-14","newspaper":"Agence Bénin Presse","country":"Benin","type":"articles"}]}]}