{"id":826,"name":"Agence Togolaise de Presse","type":"Organisations","stats":{"articleCount":7,"countries":["Kuwait","Saudi Arabia","Togo"],"dateRange":{"first":"1976-03-03","last":"2005-05-24"}},"locations":[{"name":"Togo","lat":8.66667,"lng":1.08333,"country":"Togo","articleCount":6,"articles":[{"id":"28454","title":"Lutte contre le VIH/SIDA : les confessions religieuses des Savanes renforcent leurs capacités","date":"2005-05-24","newspaper":"Togo-Presse","country":"Togo","type":"articles"},{"id":"28737","title":"En prélude à la célébration du 33e anniversaire de l'Appel historique de Kpalimé : des offices religieux célébrés à Kpalimé","date":"2002-08-29","newspaper":"Togo-Presse","country":"Togo","type":"articles"},{"id":"28775","title":"Prière du Ramadan : les fidèles de Mahomet de Bè ont imploré la bénédiction de Dieu sur le Togo","date":"2002-12-09","newspaper":"Togo-Presse","country":"Togo","type":"articles"},{"id":"29081","title":"Conférence-débat du comité international pour l'expansion de l'islam à Sokodé","date":"1996-11-28","newspaper":"Togo-Presse","country":"Togo","type":"articles"},{"id":"29163","title":"Kéran : la grande mosquée de la ville de Kandé inaugurée","date":"1997-01-21","newspaper":"Togo-Presse","country":"Togo","type":"articles"},{"id":"29683","title":"Les responsables libyens ont visité les différents département de l'Information","date":"1976-03-03","newspaper":"Togo-Presse","country":"Togo","type":"articles"}]},{"name":"Kéran","lat":10.083333333333,"lng":1.0,"country":"Togo","articleCount":3,"articles":[{"id":"29081","title":"Conférence-débat du comité international pour l'expansion de l'islam à Sokodé","date":"1996-11-28","newspaper":"Togo-Presse","country":"Togo","type":"articles"},{"id":"29163","title":"Kéran : la grande mosquée de la ville de Kandé inaugurée","date":"1997-01-21","newspaper":"Togo-Presse","country":"Togo","type":"articles"},{"id":"29197","title":"Célébration de la fête de la Tabaski dans les préfectures","date":"1997-04-25","newspaper":"Togo-Presse","country":"Togo","type":"articles"}]},{"name":"Dapaong","lat":10.866666666667,"lng":0.2,"country":"Togo","articleCount":2,"articles":[{"id":"28454","title":"Lutte contre le VIH/SIDA : les confessions religieuses des Savanes renforcent leurs capacités","date":"2005-05-24","newspaper":"Togo-Presse","country":"Togo","type":"articles"},{"id":"29197","title":"Célébration de la fête de la Tabaski dans les préfectures","date":"1997-04-25","newspaper":"Togo-Presse","country":"Togo","type":"articles"}]},{"name":"Tône","lat":10.916667,"lng":0.166667,"country":"Togo","articleCount":2,"articles":[{"id":"28454","title":"Lutte contre le VIH/SIDA : les confessions religieuses des Savanes renforcent leurs capacités","date":"2005-05-24","newspaper":"Togo-Presse","country":"Togo","type":"articles"},{"id":"29197","title":"Célébration de la fête de la Tabaski dans les préfectures","date":"1997-04-25","newspaper":"Togo-Presse","country":"Togo","type":"articles"}]},{"name":"Lomé","lat":6.12874,"lng":1.22154,"country":"Togo","articleCount":2,"articles":[{"id":"28737","title":"En prélude à la célébration du 33e anniversaire de l'Appel historique de Kpalimé : des offices religieux célébrés à Kpalimé","date":"2002-08-29","newspaper":"Togo-Presse","country":"Togo","type":"articles"},{"id":"29197","title":"Célébration de la fête de la Tabaski dans les préfectures","date":"1997-04-25","newspaper":"Togo-Presse","country":"Togo","type":"articles"}]},{"name":"Kpalimé","lat":6.91,"lng":0.62805555555556,"country":"Togo","articleCount":2,"articles":[{"id":"28737","title":"En prélude à la célébration du 33e anniversaire de l'Appel historique de Kpalimé : des offices religieux célébrés à Kpalimé","date":"2002-08-29","newspaper":"Togo-Presse","country":"Togo","type":"articles"},{"id":"29081","title":"Conférence-débat du comité international pour l'expansion de l'islam à Sokodé","date":"1996-11-28","newspaper":"Togo-Presse","country":"Togo","type":"articles"}]},{"name":"Assoli","lat":9.35,"lng":1.2666666666667,"country":"Togo","articleCount":2,"articles":[{"id":"29081","title":"Conférence-débat du comité international pour l'expansion de l'islam à Sokodé","date":"1996-11-28","newspaper":"Togo-Presse","country":"Togo","type":"articles"},{"id":"29197","title":"Célébration de la fête de la Tabaski dans les préfectures","date":"1997-04-25","newspaper":"Togo-Presse","country":"Togo","type":"articles"}]},{"name":"La Mecque","lat":21.4225,"lng":39.826111,"country":"Saudi Arabia","articleCount":2,"articles":[{"id":"29081","title":"Conférence-débat du comité international pour l'expansion de l'islam à Sokodé","date":"1996-11-28","newspaper":"Togo-Presse","country":"Togo","type":"articles"},{"id":"29197","title":"Célébration de la fête de la Tabaski dans les préfectures","date":"1997-04-25","newspaper":"Togo-Presse","country":"Togo","type":"articles"}]},{"name":"Kandé","lat":9.9563888888889,"lng":1.0463888888889,"country":"Togo","articleCount":2,"articles":[{"id":"29163","title":"Kéran : la grande mosquée de la ville de Kandé inaugurée","date":"1997-01-21","newspaper":"Togo-Presse","country":"Togo","type":"articles"},{"id":"29197","title":"Célébration de la fête de la Tabaski dans les préfectures","date":"1997-04-25","newspaper":"Togo-Presse","country":"Togo","type":"articles"}]},{"name":"Kloto","lat":7.083333,"lng":0.75,"country":"Togo","articleCount":1,"articles":[{"id":"28737","title":"En prélude à la célébration du 33e anniversaire de l'Appel historique de Kpalimé : des offices religieux célébrés à Kpalimé","date":"2002-08-29","newspaper":"Togo-Presse","country":"Togo","type":"articles"}]},{"name":"Bè","lat":6.13333,"lng":1.25,"country":"Togo","articleCount":1,"articles":[{"id":"28775","title":"Prière du Ramadan : les fidèles de Mahomet de Bè ont imploré la bénédiction de Dieu sur le Togo","date":"2002-12-09","newspaper":"Togo-Presse","country":"Togo","type":"articles"}]},{"name":"Cinkassé","lat":11.096876,"lng":0.016393,"country":"Togo","articleCount":1,"articles":[{"id":"29081","title":"Conférence-débat du comité international pour l'expansion de l'islam à Sokodé","date":"1996-11-28","newspaper":"Togo-Presse","country":"Togo","type":"articles"}]},{"name":"Kétao","lat":9.6611111111111,"lng":1.3113888888889,"country":"Togo","articleCount":1,"articles":[{"id":"29081","title":"Conférence-débat du comité international pour l'expansion de l'islam à Sokodé","date":"1996-11-28","newspaper":"Togo-Presse","country":"Togo","type":"articles"}]},{"name":"Sokodé","lat":8.9833333333333,"lng":1.1333333333333,"country":"Togo","articleCount":1,"articles":[{"id":"29081","title":"Conférence-débat du comité international pour l'expansion de l'islam à Sokodé","date":"1996-11-28","newspaper":"Togo-Presse","country":"Togo","type":"articles"}]},{"name":"Tchaoudjo","lat":8.98333333,"lng":1.13333333,"country":"Togo","articleCount":1,"articles":[{"id":"29081","title":"Conférence-débat du comité international pour l'expansion de l'islam à Sokodé","date":"1996-11-28","newspaper":"Togo-Presse","country":"Togo","type":"articles"}]},{"name":"Koweït","lat":29.5,"lng":47.75,"country":"Kuwait","articleCount":1,"articles":[{"id":"29163","title":"Kéran : la grande mosquée de la ville de Kandé inaugurée","date":"1997-01-21","newspaper":"Togo-Presse","country":"Togo","type":"articles"}]},{"name":"Adjengré","lat":0,"lng":0,"country":"Unknown","articleCount":1,"articles":[{"id":"29197","title":"Célébration de la fête de la Tabaski dans les préfectures","date":"1997-04-25","newspaper":"Togo-Presse","country":"Togo","type":"articles"}]},{"name":"Bafilo","lat":9.35,"lng":1.26666667,"country":"Togo","articleCount":1,"articles":[{"id":"29197","title":"Célébration de la fête de la Tabaski dans les préfectures","date":"1997-04-25","newspaper":"Togo-Presse","country":"Togo","type":"articles"}]},{"name":"Kara","lat":9.5488888888889,"lng":1.1905555555556,"country":"Togo","articleCount":1,"articles":[{"id":"29197","title":"Célébration de la fête de la Tabaski dans les préfectures","date":"1997-04-25","newspaper":"Togo-Presse","country":"Togo","type":"articles"}]},{"name":"Notsé","lat":6.948333333333333,"lng":1.1680555555555556,"country":"Togo","articleCount":1,"articles":[{"id":"29197","title":"Célébration de la fête de la Tabaski dans les préfectures","date":"1997-04-25","newspaper":"Togo-Presse","country":"Togo","type":"articles"}]},{"name":"Sotouboua","lat":8.56667,"lng":0.983333,"country":"Togo","articleCount":1,"articles":[{"id":"29197","title":"Célébration de la fête de la Tabaski dans les préfectures","date":"1997-04-25","newspaper":"Togo-Presse","country":"Togo","type":"articles"}]},{"name":"Kozah","lat":9.583333,"lng":1.166667,"country":"Togo","articleCount":1,"articles":[{"id":"29197","title":"Célébration de la fête de la Tabaski dans les préfectures","date":"1997-04-25","newspaper":"Togo-Presse","country":"Togo","type":"articles"}]},{"name":"Zio","lat":6.433333,"lng":1.216667,"country":"Togo","articleCount":1,"articles":[{"id":"29197","title":"Célébration de la fête de la Tabaski dans les préfectures","date":"1997-04-25","newspaper":"Togo-Presse","country":"Togo","type":"articles"}]},{"name":"Mandouri","lat":10.847468,"lng":0.816593,"country":"Togo","articleCount":1,"articles":[{"id":"29197","title":"Célébration de la fête de la Tabaski dans les préfectures","date":"1997-04-25","newspaper":"Togo-Presse","country":"Togo","type":"articles"}]},{"name":"Fazao","lat":0,"lng":0,"country":"Unknown","articleCount":1,"articles":[{"id":"29197","title":"Célébration de la fête de la Tabaski dans les préfectures","date":"1997-04-25","newspaper":"Togo-Presse","country":"Togo","type":"articles"}]},{"name":"Aouda","lat":0,"lng":0,"country":"Unknown","articleCount":1,"articles":[{"id":"29197","title":"Célébration de la fête de la Tabaski dans les préfectures","date":"1997-04-25","newspaper":"Togo-Presse","country":"Togo","type":"articles"}]},{"name":"Nyékonakpoé","lat":6.1305555555555555,"lng":1.2055555555555555,"country":"Togo","articleCount":1,"articles":[{"id":"29197","title":"Célébration de la fête de la Tabaski dans les préfectures","date":"1997-04-25","newspaper":"Togo-Presse","country":"Togo","type":"articles"}]},{"name":"Haho","lat":6.95,"lng":1.16666667,"country":"Togo","articleCount":1,"articles":[{"id":"29197","title":"Célébration de la fête de la Tabaski dans les préfectures","date":"1997-04-25","newspaper":"Togo-Presse","country":"Togo","type":"articles"}]}]}