{"id":154,"name":"13e congrès de l'AEEMB","type":"Événements","stats":{"articleCount":2,"countries":["Burkina Faso","Côte d'Ivoire","Saudi Arabia","Sudan"],"dateRange":{"first":"2010-11","last":"2011-01"}},"locations":[{"name":"Bobo-Dioulasso","lat":11.17715,"lng":-4.2979,"country":"Burkina Faso","articleCount":2,"articles":[{"id":"10237","title":"La Preuve #36","date":"2011-01","newspaper":"La Preuve","country":"Burkina Faso","type":"publications"},{"id":"10238","title":"La Preuve #35","date":"2010-11","newspaper":"La Preuve","country":"Burkina Faso","type":"publications"}]},{"name":"Ouagadougou","lat":12.36566,"lng":-1.53388,"country":"Burkina Faso","articleCount":2,"articles":[{"id":"10237","title":"La Preuve #36","date":"2011-01","newspaper":"La Preuve","country":"Burkina Faso","type":"publications"},{"id":"10238","title":"La Preuve #35","date":"2010-11","newspaper":"La Preuve","country":"Burkina Faso","type":"publications"}]},{"name":"Centre culturel islamique AEEMB","lat":12.37545088285411,"lng":-1.4871601188636745,"country":"Burkina Faso","articleCount":1,"articles":[{"id":"10237","title":"La Preuve #36","date":"2011-01","newspaper":"La Preuve","country":"Burkina Faso","type":"publications"}]},{"name":"Dédougou","lat":12.46338,"lng":-3.46075,"country":"Burkina Faso","articleCount":1,"articles":[{"id":"10237","title":"La Preuve #36","date":"2011-01","newspaper":"La Preuve","country":"Burkina Faso","type":"publications"}]},{"name":"Fada N'Gourma","lat":12.06157,"lng":0.35843,"country":"Burkina Faso","articleCount":1,"articles":[{"id":"10237","title":"La Preuve #36","date":"2011-01","newspaper":"La Preuve","country":"Burkina Faso","type":"publications"}]},{"name":"Koudougou","lat":12.25263,"lng":-2.36272,"country":"Burkina Faso","articleCount":1,"articles":[{"id":"10237","title":"La Preuve #36","date":"2011-01","newspaper":"La Preuve","country":"Burkina Faso","type":"publications"}]},{"name":"Médersa centrale de Ouagadougou","lat":0,"lng":0,"country":"Unknown","articleCount":1,"articles":[{"id":"10237","title":"La Preuve #36","date":"2011-01","newspaper":"La Preuve","country":"Burkina Faso","type":"publications"}]},{"name":"Ouahigouya","lat":13.58278,"lng":-2.42158,"country":"Burkina Faso","articleCount":1,"articles":[{"id":"10237","title":"La Preuve #36","date":"2011-01","newspaper":"La Preuve","country":"Burkina Faso","type":"publications"}]},{"name":"Soudan","lat":16.0,"lng":30.0,"country":"Sudan","articleCount":1,"articles":[{"id":"10237","title":"La Preuve #36","date":"2011-01","newspaper":"La Preuve","country":"Burkina Faso","type":"publications"}]},{"name":"Médine","lat":24.46861,"lng":39.61417,"country":"Saudi Arabia","articleCount":1,"articles":[{"id":"10237","title":"La Preuve #36","date":"2011-01","newspaper":"La Preuve","country":"Burkina Faso","type":"publications"}]},{"name":"Gourcy","lat":13.20776,"lng":-2.35893,"country":"Burkina Faso","articleCount":1,"articles":[{"id":"10238","title":"La Preuve #35","date":"2010-11","newspaper":"La Preuve","country":"Burkina Faso","type":"publications"}]},{"name":"Ziniaré","lat":12.58186,"lng":-1.2971,"country":"Burkina Faso","articleCount":1,"articles":[{"id":"10238","title":"La Preuve #35","date":"2010-11","newspaper":"La Preuve","country":"Burkina Faso","type":"publications"}]},{"name":"Abidjan","lat":5.35444,"lng":-4.00167,"country":"Côte d'Ivoire","articleCount":1,"articles":[{"id":"10238","title":"La Preuve #35","date":"2010-11","newspaper":"La Preuve","country":"Burkina Faso","type":"publications"}]}]}