{"id":203,"name":"Séminaire National de Formation Islamique","type":"Événements","stats":{"articleCount":4,"countries":["Benin","Burkina Faso","Côte d'Ivoire","Ghana","Israel","Saudi Arabia"],"dateRange":{"first":"2009-04/2009-06","last":"2016-08-23"}},"locations":[{"name":"Ouagadougou","lat":12.36566,"lng":-1.53388,"country":"Burkina Faso","articleCount":3,"articles":[{"id":"2427","title":"30e anniversaire de l'AEEMB : « Il n'est pas question d'utiliser la mosquée pour faire de la politique », dixit l'imam Marboulaye Nombré","date":"2016-08-23","newspaper":"Le Pays","country":"Burkina Faso","type":"articles"},{"id":"11426","title":"An-Nasr trimestriel #52","date":"2013-07/2013-09","newspaper":"An-Nasr Trimestriel","country":"Burkina Faso","type":"publications"},{"id":"11432","title":"An-Nasr trimestriel #38","date":"2009-04/2009-06","newspaper":"An-Nasr Trimestriel","country":"Burkina Faso","type":"publications"}]},{"name":"Centre culturel islamique AEEMB","lat":12.37545088285411,"lng":-1.4871601188636745,"country":"Burkina Faso","articleCount":2,"articles":[{"id":"2427","title":"30e anniversaire de l'AEEMB : « Il n'est pas question d'utiliser la mosquée pour faire de la politique », dixit l'imam Marboulaye Nombré","date":"2016-08-23","newspaper":"Le Pays","country":"Burkina Faso","type":"articles"},{"id":"11426","title":"An-Nasr trimestriel #52","date":"2013-07/2013-09","newspaper":"An-Nasr Trimestriel","country":"Burkina Faso","type":"publications"}]},{"name":"Burkina Faso","lat":12.5,"lng":-1.66667,"country":"Burkina Faso","articleCount":1,"articles":[{"id":"2427","title":"30e anniversaire de l'AEEMB : « Il n'est pas question d'utiliser la mosquée pour faire de la politique », dixit l'imam Marboulaye Nombré","date":"2016-08-23","newspaper":"Le Pays","country":"Burkina Faso","type":"articles"}]},{"name":"Côte d'Ivoire","lat":8.0,"lng":-5.5,"country":"Côte d'Ivoire","articleCount":1,"articles":[{"id":"2427","title":"30e anniversaire de l'AEEMB : « Il n'est pas question d'utiliser la mosquée pour faire de la politique », dixit l'imam Marboulaye Nombré","date":"2016-08-23","newspaper":"Le Pays","country":"Burkina Faso","type":"articles"}]},{"name":"Bobo-Dioulasso","lat":11.17715,"lng":-4.2979,"country":"Burkina Faso","articleCount":1,"articles":[{"id":"11426","title":"An-Nasr trimestriel #52","date":"2013-07/2013-09","newspaper":"An-Nasr Trimestriel","country":"Burkina Faso","type":"publications"}]},{"name":"Ouahigouya","lat":13.58278,"lng":-2.42158,"country":"Burkina Faso","articleCount":1,"articles":[{"id":"11426","title":"An-Nasr trimestriel #52","date":"2013-07/2013-09","newspaper":"An-Nasr Trimestriel","country":"Burkina Faso","type":"publications"}]},{"name":"Israël","lat":31.5,"lng":34.75,"country":"Israel","articleCount":1,"articles":[{"id":"11426","title":"An-Nasr trimestriel #52","date":"2013-07/2013-09","newspaper":"An-Nasr Trimestriel","country":"Burkina Faso","type":"publications"}]},{"name":"Ghana","lat":8.1,"lng":-1.2,"country":"Ghana","articleCount":1,"articles":[{"id":"11426","title":"An-Nasr trimestriel #52","date":"2013-07/2013-09","newspaper":"An-Nasr Trimestriel","country":"Burkina Faso","type":"publications"}]},{"name":"Fada N'Gourma","lat":12.06157,"lng":0.35843,"country":"Burkina Faso","articleCount":1,"articles":[{"id":"11432","title":"An-Nasr trimestriel #38","date":"2009-04/2009-06","newspaper":"An-Nasr Trimestriel","country":"Burkina Faso","type":"publications"}]},{"name":"Ramatoulaye","lat":13.633333,"lng":-2.316667,"country":"Burkina Faso","articleCount":1,"articles":[{"id":"11432","title":"An-Nasr trimestriel #38","date":"2009-04/2009-06","newspaper":"An-Nasr Trimestriel","country":"Burkina Faso","type":"publications"}]},{"name":"Médine","lat":24.46861,"lng":39.61417,"country":"Saudi Arabia","articleCount":1,"articles":[{"id":"11432","title":"An-Nasr trimestriel #38","date":"2009-04/2009-06","newspaper":"An-Nasr Trimestriel","country":"Burkina Faso","type":"publications"}]},{"name":"Bénin","lat":9.5,"lng":2.25,"country":"Benin","articleCount":1,"articles":[{"id":"12018","title":"ASSALAM #21","date":"2012-10","newspaper":"ASSALAM","country":"Benin","type":"publications"}]},{"name":"Abomey-Calavi","lat":6.44852,"lng":2.35566,"country":"Benin","articleCount":1,"articles":[{"id":"12018","title":"ASSALAM #21","date":"2012-10","newspaper":"ASSALAM","country":"Benin","type":"publications"}]},{"name":"Bassila","lat":9.00814,"lng":1.6654,"country":"Benin","articleCount":1,"articles":[{"id":"12018","title":"ASSALAM #21","date":"2012-10","newspaper":"ASSALAM","country":"Benin","type":"publications"}]},{"name":"Parakou","lat":9.33716,"lng":2.63031,"country":"Benin","articleCount":1,"articles":[{"id":"12018","title":"ASSALAM #21","date":"2012-10","newspaper":"ASSALAM","country":"Benin","type":"publications"}]},{"name":"Djougou","lat":9.70853,"lng":1.66598,"country":"Benin","articleCount":1,"articles":[{"id":"12018","title":"ASSALAM #21","date":"2012-10","newspaper":"ASSALAM","country":"Benin","type":"publications"}]},{"name":"Kandi","lat":11.13417,"lng":2.93861,"country":"Benin","articleCount":1,"articles":[{"id":"12018","title":"ASSALAM #21","date":"2012-10","newspaper":"ASSALAM","country":"Benin","type":"publications"}]},{"name":"Cotonou","lat":6.36536,"lng":2.41833,"country":"Benin","articleCount":1,"articles":[{"id":"12018","title":"ASSALAM #21","date":"2012-10","newspaper":"ASSALAM","country":"Benin","type":"publications"}]},{"name":"La Mecque","lat":21.4225,"lng":39.826111,"country":"Saudi Arabia","articleCount":1,"articles":[{"id":"12018","title":"ASSALAM #21","date":"2012-10","newspaper":"ASSALAM","country":"Benin","type":"publications"}]}]}