{"id":204,"name":"Séminaires Régionaux de Formation Islamique","type":"Événements","stats":{"articleCount":2,"countries":["Burkina Faso","Ghana","Japan","Nigeria","Pakistan","Saudi Arabia","Sudan","Togo"],"dateRange":{"first":"2010-07/2010-09","last":"2012-07/2012-09"}},"locations":[{"name":"Ouagadougou","lat":12.36566,"lng":-1.53388,"country":"Burkina Faso","articleCount":2,"articles":[{"id":"11428","title":"An-Nasr trimestriel #50","date":"2012-07/2012-09","newspaper":"An-Nasr Trimestriel","country":"Burkina Faso","type":"publications"},{"id":"11430","title":"An-Nasr trimestriel #43","date":"2010-07/2010-09","newspaper":"An-Nasr Trimestriel","country":"Burkina Faso","type":"publications"}]},{"name":"Soudan","lat":16.0,"lng":30.0,"country":"Sudan","articleCount":2,"articles":[{"id":"11428","title":"An-Nasr trimestriel #50","date":"2012-07/2012-09","newspaper":"An-Nasr Trimestriel","country":"Burkina Faso","type":"publications"},{"id":"11430","title":"An-Nasr trimestriel #43","date":"2010-07/2010-09","newspaper":"An-Nasr Trimestriel","country":"Burkina Faso","type":"publications"}]},{"name":"Médine","lat":24.46861,"lng":39.61417,"country":"Saudi Arabia","articleCount":2,"articles":[{"id":"11428","title":"An-Nasr trimestriel #50","date":"2012-07/2012-09","newspaper":"An-Nasr Trimestriel","country":"Burkina Faso","type":"publications"},{"id":"11430","title":"An-Nasr trimestriel #43","date":"2010-07/2010-09","newspaper":"An-Nasr Trimestriel","country":"Burkina Faso","type":"publications"}]},{"name":"Pakistan","lat":30.0,"lng":70.0,"country":"Pakistan","articleCount":2,"articles":[{"id":"11428","title":"An-Nasr trimestriel #50","date":"2012-07/2012-09","newspaper":"An-Nasr Trimestriel","country":"Burkina Faso","type":"publications"},{"id":"11430","title":"An-Nasr trimestriel #43","date":"2010-07/2010-09","newspaper":"An-Nasr Trimestriel","country":"Burkina Faso","type":"publications"}]},{"name":"Bobo-Dioulasso","lat":11.17715,"lng":-4.2979,"country":"Burkina Faso","articleCount":1,"articles":[{"id":"11428","title":"An-Nasr trimestriel #50","date":"2012-07/2012-09","newspaper":"An-Nasr Trimestriel","country":"Burkina Faso","type":"publications"}]},{"name":"Tenkodogo","lat":11.78,"lng":-0.36972,"country":"Burkina Faso","articleCount":1,"articles":[{"id":"11428","title":"An-Nasr trimestriel #50","date":"2012-07/2012-09","newspaper":"An-Nasr Trimestriel","country":"Burkina Faso","type":"publications"}]},{"name":"Japon","lat":35.68536,"lng":139.75309,"country":"Japan","articleCount":1,"articles":[{"id":"11428","title":"An-Nasr trimestriel #50","date":"2012-07/2012-09","newspaper":"An-Nasr Trimestriel","country":"Burkina Faso","type":"publications"}]},{"name":"Centre culturel islamique AEEMB","lat":12.37545088285411,"lng":-1.4871601188636745,"country":"Burkina Faso","articleCount":1,"articles":[{"id":"11428","title":"An-Nasr trimestriel #50","date":"2012-07/2012-09","newspaper":"An-Nasr Trimestriel","country":"Burkina Faso","type":"publications"}]},{"name":"Dédougou","lat":12.46338,"lng":-3.46075,"country":"Burkina Faso","articleCount":1,"articles":[{"id":"11430","title":"An-Nasr trimestriel #43","date":"2010-07/2010-09","newspaper":"An-Nasr Trimestriel","country":"Burkina Faso","type":"publications"}]},{"name":"Dori","lat":14.0341,"lng":-0.03261,"country":"Burkina Faso","articleCount":1,"articles":[{"id":"11430","title":"An-Nasr trimestriel #43","date":"2010-07/2010-09","newspaper":"An-Nasr Trimestriel","country":"Burkina Faso","type":"publications"}]},{"name":"Fada N'Gourma","lat":12.06157,"lng":0.35843,"country":"Burkina Faso","articleCount":1,"articles":[{"id":"11430","title":"An-Nasr trimestriel #43","date":"2010-07/2010-09","newspaper":"An-Nasr Trimestriel","country":"Burkina Faso","type":"publications"}]},{"name":"Togo","lat":8.66667,"lng":1.08333,"country":"Togo","articleCount":1,"articles":[{"id":"11430","title":"An-Nasr trimestriel #43","date":"2010-07/2010-09","newspaper":"An-Nasr Trimestriel","country":"Burkina Faso","type":"publications"}]},{"name":"Ghana","lat":8.1,"lng":-1.2,"country":"Ghana","articleCount":1,"articles":[{"id":"11430","title":"An-Nasr trimestriel #43","date":"2010-07/2010-09","newspaper":"An-Nasr Trimestriel","country":"Burkina Faso","type":"publications"}]},{"name":"Nigéria","lat":10.0,"lng":8.0,"country":"Nigeria","articleCount":1,"articles":[{"id":"11430","title":"An-Nasr trimestriel #43","date":"2010-07/2010-09","newspaper":"An-Nasr Trimestriel","country":"Burkina Faso","type":"publications"}]}]}