{"id":226,"name":"Congrès de l'UIB (2017)","type":"Événements","stats":{"articleCount":2,"countries":["Bangladesh","Benin","Burkina Faso","Niger","Saudi Arabia","Togo"],"dateRange":{"first":"2017-05-22","last":"2017-09"}},"locations":[{"name":"Bénin","lat":9.5,"lng":2.25,"country":"Benin","articleCount":2,"articles":[{"id":"8814","title":"Religion : l'Union islamique du Bénin tient enfin son congrès ordinaire","date":"2017-05-22","newspaper":"La Nation","country":"Benin","type":"articles"},{"id":"12017","title":"ASSALAM #30","date":"2017-09","newspaper":"ASSALAM","country":"Benin","type":"publications"}]},{"name":"Parakou","lat":9.33716,"lng":2.63031,"country":"Benin","articleCount":1,"articles":[{"id":"8814","title":"Religion : l'Union islamique du Bénin tient enfin son congrès ordinaire","date":"2017-05-22","newspaper":"La Nation","country":"Benin","type":"articles"}]},{"name":"Porto-Novo","lat":6.49646,"lng":2.60359,"country":"Benin","articleCount":1,"articles":[{"id":"8814","title":"Religion : l'Union islamique du Bénin tient enfin son congrès ordinaire","date":"2017-05-22","newspaper":"La Nation","country":"Benin","type":"articles"}]},{"name":"Mosquée centrale Cheick Mohibi Aïdjedo","lat":0,"lng":0,"country":"Unknown","articleCount":1,"articles":[{"id":"12017","title":"ASSALAM #30","date":"2017-09","newspaper":"ASSALAM","country":"Benin","type":"publications"}]},{"name":"Savé","lat":8.03424,"lng":2.4866,"country":"Benin","articleCount":1,"articles":[{"id":"12017","title":"ASSALAM #30","date":"2017-09","newspaper":"ASSALAM","country":"Benin","type":"publications"}]},{"name":"Ouagadougou","lat":12.36566,"lng":-1.53388,"country":"Burkina Faso","articleCount":1,"articles":[{"id":"12017","title":"ASSALAM #30","date":"2017-09","newspaper":"ASSALAM","country":"Benin","type":"publications"}]},{"name":"Abomey-Calavi","lat":6.44852,"lng":2.35566,"country":"Benin","articleCount":1,"articles":[{"id":"12017","title":"ASSALAM #30","date":"2017-09","newspaper":"ASSALAM","country":"Benin","type":"publications"}]},{"name":"Burkina Faso","lat":12.5,"lng":-1.66667,"country":"Burkina Faso","articleCount":1,"articles":[{"id":"12017","title":"ASSALAM #30","date":"2017-09","newspaper":"ASSALAM","country":"Benin","type":"publications"}]},{"name":"Togo","lat":8.66667,"lng":1.08333,"country":"Togo","articleCount":1,"articles":[{"id":"12017","title":"ASSALAM #30","date":"2017-09","newspaper":"ASSALAM","country":"Benin","type":"publications"}]},{"name":"Niger","lat":18.0,"lng":9.0,"country":"Niger","articleCount":1,"articles":[{"id":"12017","title":"ASSALAM #30","date":"2017-09","newspaper":"ASSALAM","country":"Benin","type":"publications"}]},{"name":"La Mecque","lat":21.4225,"lng":39.826111,"country":"Saudi Arabia","articleCount":1,"articles":[{"id":"12017","title":"ASSALAM #30","date":"2017-09","newspaper":"ASSALAM","country":"Benin","type":"publications"}]},{"name":"Médine","lat":24.46861,"lng":39.61417,"country":"Saudi Arabia","articleCount":1,"articles":[{"id":"12017","title":"ASSALAM #30","date":"2017-09","newspaper":"ASSALAM","country":"Benin","type":"publications"}]},{"name":"Bangladesh","lat":24.016666666666666,"lng":89.86666666666666,"country":"Bangladesh","articleCount":1,"articles":[{"id":"12017","title":"ASSALAM #30","date":"2017-09","newspaper":"ASSALAM","country":"Benin","type":"publications"}]}]}