{"id":239,"name":"Congrès constitutif de l'ACEEMUB","type":"Événements","stats":{"articleCount":2,"countries":["Algeria","Angola","Benin","Cameroon","Canada","Côte d'Ivoire","Egypt","France","Gabon","Gambia","Ghana","Guinea","Japan","Kuwait","Qatar","Russia","Saudi Arabia","Senegal","South Africa","Sweden","Togo","United States of America"],"dateRange":{"first":"2018-07/2018-08","last":"2019-01/2019-02"}},"locations":[{"name":"Université d'Abomey-Calavi","lat":6.44105,"lng":2.35238,"country":"Benin","articleCount":2,"articles":[{"id":"12014","title":"ASSALAM #33","date":"2019-01/2019-02","newspaper":"ASSALAM","country":"Benin","type":"publications"},{"id":"12016","title":"ASSALAM #31","date":"2018-07/2018-08","newspaper":"ASSALAM","country":"Benin","type":"publications"}]},{"name":"Bénin","lat":9.5,"lng":2.25,"country":"Benin","articleCount":2,"articles":[{"id":"12014","title":"ASSALAM #33","date":"2019-01/2019-02","newspaper":"ASSALAM","country":"Benin","type":"publications"},{"id":"12016","title":"ASSALAM #31","date":"2018-07/2018-08","newspaper":"ASSALAM","country":"Benin","type":"publications"}]},{"name":"Abomey-Calavi","lat":6.44852,"lng":2.35566,"country":"Benin","articleCount":2,"articles":[{"id":"12014","title":"ASSALAM #33","date":"2019-01/2019-02","newspaper":"ASSALAM","country":"Benin","type":"publications"},{"id":"12016","title":"ASSALAM #31","date":"2018-07/2018-08","newspaper":"ASSALAM","country":"Benin","type":"publications"}]},{"name":"Parakou","lat":9.33716,"lng":2.63031,"country":"Benin","articleCount":2,"articles":[{"id":"12014","title":"ASSALAM #33","date":"2019-01/2019-02","newspaper":"ASSALAM","country":"Benin","type":"publications"},{"id":"12016","title":"ASSALAM #31","date":"2018-07/2018-08","newspaper":"ASSALAM","country":"Benin","type":"publications"}]},{"name":"Porto-Novo","lat":6.49646,"lng":2.60359,"country":"Benin","articleCount":2,"articles":[{"id":"12014","title":"ASSALAM #33","date":"2019-01/2019-02","newspaper":"ASSALAM","country":"Benin","type":"publications"},{"id":"12016","title":"ASSALAM #31","date":"2018-07/2018-08","newspaper":"ASSALAM","country":"Benin","type":"publications"}]},{"name":"Cotonou","lat":6.36536,"lng":2.41833,"country":"Benin","articleCount":2,"articles":[{"id":"12014","title":"ASSALAM #33","date":"2019-01/2019-02","newspaper":"ASSALAM","country":"Benin","type":"publications"},{"id":"12016","title":"ASSALAM #31","date":"2018-07/2018-08","newspaper":"ASSALAM","country":"Benin","type":"publications"}]},{"name":"Malanville","lat":11.86819,"lng":3.38327,"country":"Benin","articleCount":2,"articles":[{"id":"12014","title":"ASSALAM #33","date":"2019-01/2019-02","newspaper":"ASSALAM","country":"Benin","type":"publications"},{"id":"12016","title":"ASSALAM #31","date":"2018-07/2018-08","newspaper":"ASSALAM","country":"Benin","type":"publications"}]},{"name":"Banikoara","lat":11.33966,"lng":2.45915,"country":"Benin","articleCount":2,"articles":[{"id":"12014","title":"ASSALAM #33","date":"2019-01/2019-02","newspaper":"ASSALAM","country":"Benin","type":"publications"},{"id":"12016","title":"ASSALAM #31","date":"2018-07/2018-08","newspaper":"ASSALAM","country":"Benin","type":"publications"}]},{"name":"Togo","lat":8.66667,"lng":1.08333,"country":"Togo","articleCount":2,"articles":[{"id":"12014","title":"ASSALAM #33","date":"2019-01/2019-02","newspaper":"ASSALAM","country":"Benin","type":"publications"},{"id":"12016","title":"ASSALAM #31","date":"2018-07/2018-08","newspaper":"ASSALAM","country":"Benin","type":"publications"}]},{"name":"Angola","lat":-12.35,"lng":17.35,"country":"Angola","articleCount":2,"articles":[{"id":"12014","title":"ASSALAM #33","date":"2019-01/2019-02","newspaper":"ASSALAM","country":"Benin","type":"publications"},{"id":"12016","title":"ASSALAM #31","date":"2018-07/2018-08","newspaper":"ASSALAM","country":"Benin","type":"publications"}]},{"name":"Qatar","lat":25.5,"lng":51.25,"country":"Qatar","articleCount":2,"articles":[{"id":"12014","title":"ASSALAM #33","date":"2019-01/2019-02","newspaper":"ASSALAM","country":"Benin","type":"publications"},{"id":"12016","title":"ASSALAM #31","date":"2018-07/2018-08","newspaper":"ASSALAM","country":"Benin","type":"publications"}]},{"name":"Cameroun","lat":6.0,"lng":12.5,"country":"Cameroon","articleCount":2,"articles":[{"id":"12014","title":"ASSALAM #33","date":"2019-01/2019-02","newspaper":"ASSALAM","country":"Benin","type":"publications"},{"id":"12016","title":"ASSALAM #31","date":"2018-07/2018-08","newspaper":"ASSALAM","country":"Benin","type":"publications"}]},{"name":"Mosquée Oumar Ibn Khattab","lat":6.414748141664798,"lng":2.3372766573629,"country":"Benin","articleCount":1,"articles":[{"id":"12014","title":"ASSALAM #33","date":"2019-01/2019-02","newspaper":"ASSALAM","country":"Benin","type":"publications"}]},{"name":"Bohicon","lat":7.17826,"lng":2.0667,"country":"Benin","articleCount":1,"articles":[{"id":"12014","title":"ASSALAM #33","date":"2019-01/2019-02","newspaper":"ASSALAM","country":"Benin","type":"publications"}]},{"name":"Grand Popo","lat":6.28333,"lng":1.83333,"country":"Benin","articleCount":1,"articles":[{"id":"12014","title":"ASSALAM #33","date":"2019-01/2019-02","newspaper":"ASSALAM","country":"Benin","type":"publications"}]},{"name":"Abomey","lat":7.18286,"lng":1.99119,"country":"Benin","articleCount":1,"articles":[{"id":"12014","title":"ASSALAM #33","date":"2019-01/2019-02","newspaper":"ASSALAM","country":"Benin","type":"publications"}]},{"name":"Kandi","lat":11.13417,"lng":2.93861,"country":"Benin","articleCount":1,"articles":[{"id":"12014","title":"ASSALAM #33","date":"2019-01/2019-02","newspaper":"ASSALAM","country":"Benin","type":"publications"}]},{"name":"Natitingou","lat":10.30416,"lng":1.37962,"country":"Benin","articleCount":1,"articles":[{"id":"12014","title":"ASSALAM #33","date":"2019-01/2019-02","newspaper":"ASSALAM","country":"Benin","type":"publications"}]},{"name":"Algérie","lat":28.0,"lng":3.0,"country":"Algeria","articleCount":1,"articles":[{"id":"12014","title":"ASSALAM #33","date":"2019-01/2019-02","newspaper":"ASSALAM","country":"Benin","type":"publications"}]},{"name":"Gambie","lat":13.5,"lng":-15.5,"country":"Gambia","articleCount":1,"articles":[{"id":"12014","title":"ASSALAM #33","date":"2019-01/2019-02","newspaper":"ASSALAM","country":"Benin","type":"publications"}]},{"name":"Égypte","lat":27.0,"lng":30.0,"country":"Egypt","articleCount":1,"articles":[{"id":"12014","title":"ASSALAM #33","date":"2019-01/2019-02","newspaper":"ASSALAM","country":"Benin","type":"publications"}]},{"name":"Ghana","lat":8.1,"lng":-1.2,"country":"Ghana","articleCount":1,"articles":[{"id":"12014","title":"ASSALAM #33","date":"2019-01/2019-02","newspaper":"ASSALAM","country":"Benin","type":"publications"}]},{"name":"Gabon","lat":-1.0,"lng":11.75,"country":"Gabon","articleCount":1,"articles":[{"id":"12014","title":"ASSALAM #33","date":"2019-01/2019-02","newspaper":"ASSALAM","country":"Benin","type":"publications"}]},{"name":"Canada","lat":60.10867,"lng":-113.64258,"country":"Canada","articleCount":1,"articles":[{"id":"12014","title":"ASSALAM #33","date":"2019-01/2019-02","newspaper":"ASSALAM","country":"Benin","type":"publications"}]},{"name":"Afrique du Sud","lat":-29.0,"lng":24.0,"country":"South Africa","articleCount":1,"articles":[{"id":"12014","title":"ASSALAM #33","date":"2019-01/2019-02","newspaper":"ASSALAM","country":"Benin","type":"publications"}]},{"name":"Japon","lat":35.68536,"lng":139.75309,"country":"Japan","articleCount":1,"articles":[{"id":"12014","title":"ASSALAM #33","date":"2019-01/2019-02","newspaper":"ASSALAM","country":"Benin","type":"publications"}]},{"name":"États-Unis","lat":39.76,"lng":-98.5,"country":"United States of America","articleCount":1,"articles":[{"id":"12014","title":"ASSALAM #33","date":"2019-01/2019-02","newspaper":"ASSALAM","country":"Benin","type":"publications"}]},{"name":"Suède","lat":61.0,"lng":15.0,"country":"Sweden","articleCount":1,"articles":[{"id":"12014","title":"ASSALAM #33","date":"2019-01/2019-02","newspaper":"ASSALAM","country":"Benin","type":"publications"}]},{"name":"Koweït","lat":29.5,"lng":47.75,"country":"Kuwait","articleCount":1,"articles":[{"id":"12016","title":"ASSALAM #31","date":"2018-07/2018-08","newspaper":"ASSALAM","country":"Benin","type":"publications"}]},{"name":"Tchaourou","lat":9.0349,"lng":2.5169,"country":"Benin","articleCount":1,"articles":[{"id":"12016","title":"ASSALAM #31","date":"2018-07/2018-08","newspaper":"ASSALAM","country":"Benin","type":"publications"}]},{"name":"Bassila","lat":9.00814,"lng":1.6654,"country":"Benin","articleCount":1,"articles":[{"id":"12016","title":"ASSALAM #31","date":"2018-07/2018-08","newspaper":"ASSALAM","country":"Benin","type":"publications"}]},{"name":"N'Dali","lat":9.73027,"lng":2.45032,"country":"Benin","articleCount":1,"articles":[{"id":"12016","title":"ASSALAM #31","date":"2018-07/2018-08","newspaper":"ASSALAM","country":"Benin","type":"publications"}]},{"name":"Borgou","lat":10.74821385974019,"lng":0.6196353130056622,"country":"Togo","articleCount":1,"articles":[{"id":"12016","title":"ASSALAM #31","date":"2018-07/2018-08","newspaper":"ASSALAM","country":"Benin","type":"publications"}]},{"name":"Alibori","lat":11.128611,"lng":2.936944,"country":"Benin","articleCount":1,"articles":[{"id":"12016","title":"ASSALAM #31","date":"2018-07/2018-08","newspaper":"ASSALAM","country":"Benin","type":"publications"}]},{"name":"Kérou","lat":10.91433,"lng":1.99153,"country":"Benin","articleCount":1,"articles":[{"id":"12016","title":"ASSALAM #31","date":"2018-07/2018-08","newspaper":"ASSALAM","country":"Benin","type":"publications"}]},{"name":"Kouandé","lat":10.42486,"lng":1.71466,"country":"Benin","articleCount":1,"articles":[{"id":"12016","title":"ASSALAM #31","date":"2018-07/2018-08","newspaper":"ASSALAM","country":"Benin","type":"publications"}]},{"name":"Riyad","lat":24.65,"lng":46.71,"country":"Saudi Arabia","articleCount":1,"articles":[{"id":"12016","title":"ASSALAM #31","date":"2018-07/2018-08","newspaper":"ASSALAM","country":"Benin","type":"publications"}]},{"name":"Arabie saoudite","lat":25.0,"lng":45.0,"country":"Saudi Arabia","articleCount":1,"articles":[{"id":"12016","title":"ASSALAM #31","date":"2018-07/2018-08","newspaper":"ASSALAM","country":"Benin","type":"publications"}]},{"name":"France","lat":46.0,"lng":2.0,"country":"France","articleCount":1,"articles":[{"id":"12016","title":"ASSALAM #31","date":"2018-07/2018-08","newspaper":"ASSALAM","country":"Benin","type":"publications"}]},{"name":"Paris","lat":48.85341,"lng":2.3488,"country":"France","articleCount":1,"articles":[{"id":"12016","title":"ASSALAM #31","date":"2018-07/2018-08","newspaper":"ASSALAM","country":"Benin","type":"publications"}]},{"name":"Sénégal","lat":14.5,"lng":-14.25,"country":"Senegal","articleCount":1,"articles":[{"id":"12016","title":"ASSALAM #31","date":"2018-07/2018-08","newspaper":"ASSALAM","country":"Benin","type":"publications"}]},{"name":"Guinée","lat":10.83333,"lng":-10.66667,"country":"Guinea","articleCount":1,"articles":[{"id":"12016","title":"ASSALAM #31","date":"2018-07/2018-08","newspaper":"ASSALAM","country":"Benin","type":"publications"}]},{"name":"Côte d'Ivoire","lat":8.0,"lng":-5.5,"country":"Côte d'Ivoire","articleCount":1,"articles":[{"id":"12016","title":"ASSALAM #31","date":"2018-07/2018-08","newspaper":"ASSALAM","country":"Benin","type":"publications"}]},{"name":"Russie","lat":66.416667,"lng":94.25,"country":"Russia","articleCount":1,"articles":[{"id":"12016","title":"ASSALAM #31","date":"2018-07/2018-08","newspaper":"ASSALAM","country":"Benin","type":"publications"}]}]}